[
  {
    "id": "osm-node-1369465615",
    "name": "10. Kerros",
    "address": "",
    "lat": 60.1702551,
    "lon": 24.93887,
    "amenity": "restaurant",
    "outdoor_seating": null,
    "city": "Helsinki"
  },
  {
    "id": "osm-node-13058623709",
    "name": "14 Peaks",
    "address": "Siltasaarenkatu 13",
    "lat": 60.181936,
    "lon": 24.949822,
    "amenity": "restaurant",
    "outdoor_seating": true,
    "city": "Helsinki"
  },
  {
    "id": "osm-node-548577328",
    "name": "16 Boom",
    "address": "Snellmaninkatu 16",
    "lat": 60.1744676,
    "lon": 24.9527926,
    "amenity": "restaurant",
    "outdoor_seating": null,
    "city": "Helsinki"
  },
  {
    "id": "osm-node-13866853287",
    "name": "1664 bar",
    "address": "",
    "lat": 60.193113,
    "lon": 24.9457316,
    "amenity": "bar",
    "outdoor_seating": null,
    "city": "Helsinki"
  },
  {
    "id": "osm-node-13244623901",
    "name": "18grams",
    "address": "Livornonkatu 6",
    "lat": 60.1579733,
    "lon": 24.9157533,
    "amenity": "cafe",
    "outdoor_seating": null,
    "city": "Espoo"
  },
  {
    "id": "osm-node-12544294949",
    "name": "32 Rock Bar",
    "address": "Mäkelänkatu 32",
    "lat": 60.1946742,
    "lon": 24.9560556,
    "amenity": "pub",
    "outdoor_seating": null,
    "city": "Helsinki"
  },
  {
    "id": "osm-node-6090324791",
    "name": "4Chiefs Saloon",
    "address": "Leppävaarankatu 3-9",
    "lat": 60.2185853,
    "lon": 24.8108686,
    "amenity": "restaurant",
    "outdoor_seating": true,
    "city": "Espoo"
  },
  {
    "id": "osm-node-872758051",
    "name": "7 Veljestä",
    "address": "",
    "lat": 60.1949559,
    "lon": 24.9385446,
    "amenity": "pub",
    "outdoor_seating": null,
    "city": "Espoo"
  },
  {
    "id": "osm-node-6338161886",
    "name": "8-Bit Taproom",
    "address": "",
    "lat": 60.1659969,
    "lon": 24.9370628,
    "amenity": "pub",
    "outdoor_seating": null,
    "city": "Espoo"
  },
  {
    "id": "osm-node-59952344",
    "name": "91,1",
    "address": "Pulttitie 1",
    "lat": 60.2107746,
    "lon": 25.0533204,
    "amenity": "restaurant",
    "outdoor_seating": null,
    "city": "Helsinki"
  },
  {
    "id": "osm-node-11989830596",
    "name": "99 TopMeal",
    "address": "Mikonkatu 8",
    "lat": 60.1693975,
    "lon": 24.944957,
    "amenity": "restaurant",
    "outdoor_seating": false,
    "city": "Helsinki"
  },
  {
    "id": "osm-node-411341586",
    "name": "A-Hana",
    "address": "",
    "lat": 60.2754953,
    "lon": 25.0307813,
    "amenity": "pub",
    "outdoor_seating": null,
    "city": "Helsinki"
  },
  {
    "id": "osm-node-60543532",
    "name": "Aa Han Thai",
    "address": "Mechelininkatu 17",
    "lat": 60.1725874,
    "lon": 24.9201499,
    "amenity": "restaurant",
    "outdoor_seating": null,
    "city": "Helsinki"
  },
  {
    "id": "osm-node-4840360721",
    "name": "Aalto Valimo",
    "address": "",
    "lat": 60.1836521,
    "lon": 24.8287723,
    "amenity": "restaurant",
    "outdoor_seating": null,
    "city": "Espoo"
  },
  {
    "id": "osm-node-1377250652",
    "name": "Aangan",
    "address": "Hietalahdenkatu 8",
    "lat": 60.163146,
    "lon": 24.927851,
    "amenity": "restaurant",
    "outdoor_seating": null,
    "city": "Helsinki"
  },
  {
    "id": "osm-node-7698609880",
    "name": "Aangan",
    "address": "Tasetie 8",
    "lat": 60.290643,
    "lon": 24.9689931,
    "amenity": "restaurant",
    "outdoor_seating": null,
    "city": "Vantaa"
  },
  {
    "id": "osm-way-1011337672",
    "name": "Aangan",
    "address": "Piispansilta 11",
    "lat": 60.1604134,
    "lon": 24.7378373,
    "amenity": "restaurant",
    "outdoor_seating": false,
    "city": "Espoo"
  },
  {
    "id": "osm-node-1538487568",
    "name": "ABC Deli Tapiola",
    "address": "",
    "lat": 60.1857906,
    "lon": 24.8075184,
    "amenity": "cafe",
    "outdoor_seating": null,
    "city": "Espoo"
  },
  {
    "id": "osm-node-13076216370",
    "name": "Adams Plaza",
    "address": "",
    "lat": 60.243988,
    "lon": 24.8992005,
    "amenity": "restaurant",
    "outdoor_seating": null,
    "city": "Espoo"
  },
  {
    "id": "osm-node-423109571",
    "name": "Adlerfelt",
    "address": "B 1",
    "lat": 60.1445013,
    "lon": 24.9863759,
    "amenity": "restaurant",
    "outdoor_seating": true,
    "city": "Helsinki"
  },
  {
    "id": "osm-node-10973435865",
    "name": "Adzika Georgian Street Kitchen",
    "address": "Toinen linja 7",
    "lat": 60.181477,
    "lon": 24.9490837,
    "amenity": "restaurant",
    "outdoor_seating": true,
    "city": "Helsinki"
  },
  {
    "id": "osm-node-12526763990",
    "name": "Afghan Restaurant",
    "address": "",
    "lat": 60.2132512,
    "lon": 25.0803472,
    "amenity": "restaurant",
    "outdoor_seating": null,
    "city": "Helsinki"
  },
  {
    "id": "osm-node-11730141144",
    "name": "Ahaan Tam Sang",
    "address": "Itäkatu 1-5",
    "lat": 60.2122138,
    "lon": 25.0829188,
    "amenity": "restaurant",
    "outdoor_seating": null,
    "city": "Helsinki"
  },
  {
    "id": "osm-node-12710224531",
    "name": "Ahaan Tam Sang",
    "address": "Mannerheimintie 14",
    "lat": 60.1693534,
    "lon": 24.9382105,
    "amenity": "restaurant",
    "outdoor_seating": null,
    "city": "Helsinki"
  },
  {
    "id": "osm-node-5004956486",
    "name": "Aino",
    "address": "",
    "lat": 60.1857416,
    "lon": 24.8270103,
    "amenity": "cafe",
    "outdoor_seating": null,
    "city": "Espoo"
  },
  {
    "id": "osm-node-12977079777",
    "name": "Airelta",
    "address": "Uomatie 4",
    "lat": 60.2697334,
    "lon": 24.8526948,
    "amenity": "cafe",
    "outdoor_seating": null,
    "city": "Vantaa"
  },
  {
    "id": "osm-node-11771717314",
    "name": "Aito Fresh",
    "address": "",
    "lat": 60.1700792,
    "lon": 24.9414233,
    "amenity": "restaurant",
    "outdoor_seating": false,
    "city": "Helsinki"
  },
  {
    "id": "osm-node-11778939922",
    "name": "Aito Fresh",
    "address": "",
    "lat": 60.1696983,
    "lon": 24.9446216,
    "amenity": "restaurant",
    "outdoor_seating": null,
    "city": "Helsinki"
  },
  {
    "id": "osm-node-738226850",
    "name": "Akhanda Food And Bar",
    "address": "Maistraatinportti 4",
    "lat": 60.1984194,
    "lon": 24.9263484,
    "amenity": "restaurant",
    "outdoor_seating": null,
    "city": "Helsinki"
  },
  {
    "id": "osm-node-4620796657",
    "name": "Akhanda Nepalilainen Ravintola",
    "address": "Valimotie 2",
    "lat": 60.2156382,
    "lon": 24.8756625,
    "amenity": "restaurant",
    "outdoor_seating": false,
    "city": "Helsinki"
  },
  {
    "id": "osm-node-12506828328",
    "name": "Al Nakha",
    "address": "",
    "lat": 60.2129945,
    "lon": 25.0807143,
    "amenity": "restaurant",
    "outdoor_seating": null,
    "city": "Helsinki"
  },
  {
    "id": "osm-node-8040605625",
    "name": "Albina Restaurant & Wine Bar",
    "address": "Aleksis Kiven katu 23",
    "lat": 60.1926599,
    "lon": 24.9452585,
    "amenity": "restaurant",
    "outdoor_seating": null,
    "city": "Helsinki"
  },
  {
    "id": "osm-node-10275447796",
    "name": "Alby's Pizzeria",
    "address": "Vuollemutka 9",
    "lat": 60.2686395,
    "lon": 24.8520144,
    "amenity": "restaurant",
    "outdoor_seating": null,
    "city": "Vantaa"
  },
  {
    "id": "osm-node-13208640534",
    "name": "Alejandro's Empanadas",
    "address": "Bruno Granholmin kuja",
    "lat": 60.1929776,
    "lon": 24.9467513,
    "amenity": "cafe",
    "outdoor_seating": null,
    "city": "Helsinki"
  },
  {
    "id": "osm-node-648249321",
    "name": "Aleksanteri Lounge",
    "address": "Albertinkatu 34",
    "lat": 60.1645698,
    "lon": 24.932603,
    "amenity": "restaurant",
    "outdoor_seating": null,
    "city": "Helsinki"
  },
  {
    "id": "osm-node-12674028056",
    "name": "Alessio's Pizzeria Italiana",
    "address": "Laajaniityntie 2",
    "lat": 60.2770492,
    "lon": 24.848365,
    "amenity": "restaurant",
    "outdoor_seating": null,
    "city": "Vantaa"
  },
  {
    "id": "osm-node-11079384605",
    "name": "Alexanderplats",
    "address": "Eteläesplanadi 22",
    "lat": 60.1668005,
    "lon": 24.944627,
    "amenity": "restaurant",
    "outdoor_seating": true,
    "city": "Helsinki"
  },
  {
    "id": "osm-node-673606087",
    "name": "Alfons Pizza",
    "address": "Vuorimiehenkatu 35",
    "lat": 60.1592907,
    "lon": 24.9425191,
    "amenity": "restaurant",
    "outdoor_seating": true,
    "city": "Helsinki"
  },
  {
    "id": "osm-node-5834886109",
    "name": "Alice Italian",
    "address": "Konepajankuja 1",
    "lat": 60.1912072,
    "lon": 24.9492683,
    "amenity": "restaurant",
    "outdoor_seating": null,
    "city": "Helsinki"
  },
  {
    "id": "osm-node-60124174",
    "name": "Alin Grilli 22",
    "address": "Keinulaudankuja 4",
    "lat": 60.2364474,
    "lon": 25.0843025,
    "amenity": "restaurant",
    "outdoor_seating": null,
    "city": "Helsinki"
  },
  {
    "id": "osm-node-3367823878",
    "name": "All Star Sports Bar & Grill",
    "address": "Hämeentie 35",
    "lat": 60.1884991,
    "lon": 24.964037,
    "amenity": "pub",
    "outdoor_seating": null,
    "city": "Helsinki"
  },
  {
    "id": "osm-node-392089005",
    "name": "Alppilan Huone",
    "address": "",
    "lat": 60.1909739,
    "lon": 24.9458154,
    "amenity": "bar",
    "outdoor_seating": null,
    "city": "Helsinki"
  },
  {
    "id": "osm-node-369005913",
    "name": "Alppilan Kultainen Kulaus",
    "address": "Viipurinkatu 1",
    "lat": 60.1907084,
    "lon": 24.9483792,
    "amenity": "pub",
    "outdoor_seating": true,
    "city": "Helsinki"
  },
  {
    "id": "osm-node-301814516",
    "name": "Alvari",
    "address": "Otakaari 1",
    "lat": 60.1856001,
    "lon": 24.8270058,
    "amenity": "restaurant",
    "outdoor_seating": null,
    "city": "Espoo"
  },
  {
    "id": "osm-node-13060141669",
    "name": "AM Herkut leipomo & kahvila",
    "address": "Niittylänpolku 7",
    "lat": 60.2196154,
    "lon": 24.9356051,
    "amenity": "cafe",
    "outdoor_seating": true,
    "city": "Espoo"
  },
  {
    "id": "osm-node-1985596326",
    "name": "Amarillo",
    "address": "Aleksanterinkatu 46",
    "lat": 60.1687127,
    "lon": 24.9449551,
    "amenity": "restaurant",
    "outdoor_seating": true,
    "city": "Helsinki"
  },
  {
    "id": "osm-node-3749399200",
    "name": "Amarillo",
    "address": "Tasetie 8",
    "lat": 60.2902072,
    "lon": 24.9694653,
    "amenity": "restaurant",
    "outdoor_seating": null,
    "city": "Vantaa"
  },
  {
    "id": "osm-node-11979046657",
    "name": "Amarillo",
    "address": "Hertaksentie 2",
    "lat": 60.2904354,
    "lon": 25.0416931,
    "amenity": "restaurant",
    "outdoor_seating": null,
    "city": "Vantaa"
  },
  {
    "id": "osm-node-12697330443",
    "name": "Ambient Bar",
    "address": "Hämeentie 133",
    "lat": 60.2076334,
    "lon": 24.9747194,
    "amenity": "bar",
    "outdoor_seating": null,
    "city": "Helsinki"
  },
  {
    "id": "osm-node-1377211663",
    "name": "American Bar",
    "address": "Kalevankatu 5",
    "lat": 60.1676932,
    "lon": 24.9387572,
    "amenity": "bar",
    "outdoor_seating": null,
    "city": "Helsinki"
  },
  {
    "id": "osm-node-62968941",
    "name": "Amica",
    "address": "",
    "lat": 60.2233721,
    "lon": 24.8654666,
    "amenity": "restaurant",
    "outdoor_seating": null,
    "city": "Espoo"
  },
  {
    "id": "osm-node-7188608997",
    "name": "Amica Delipoli Tikkurila",
    "address": "Virnatie 5",
    "lat": 60.286895,
    "lon": 25.0321,
    "amenity": "restaurant",
    "outdoor_seating": null,
    "city": "Vantaa"
  },
  {
    "id": "osm-node-4754875498",
    "name": "Amigo",
    "address": "Aleksanterinkatu 15",
    "lat": 60.1692651,
    "lon": 24.9444176,
    "amenity": "restaurant",
    "outdoor_seating": null,
    "city": "Helsinki"
  },
  {
    "id": "osm-node-12137428601",
    "name": "Amos Café",
    "address": "",
    "lat": 60.1683976,
    "lon": 24.9376272,
    "amenity": "cafe",
    "outdoor_seating": false,
    "city": "Espoo"
  },
  {
    "id": "osm-node-57720046",
    "name": "Amsterdam",
    "address": "Itämerenkuja 1 C",
    "lat": 60.1625836,
    "lon": 24.9143167,
    "amenity": "pub",
    "outdoor_seating": null,
    "city": "Helsinki"
  },
  {
    "id": "osm-node-4692325013",
    "name": "Andante",
    "address": "Fredrikinkatu 20",
    "lat": 60.1628108,
    "lon": 24.9389093,
    "amenity": "cafe",
    "outdoor_seating": null,
    "city": "Helsinki"
  },
  {
    "id": "osm-node-472662935",
    "name": "Ani",
    "address": "",
    "lat": 60.1572825,
    "lon": 24.9334173,
    "amenity": "restaurant",
    "outdoor_seating": null,
    "city": "Espoo"
  },
  {
    "id": "osm-node-151006269",
    "name": "Anna.K",
    "address": "Annankatu 23",
    "lat": 60.1672061,
    "lon": 24.9366771,
    "amenity": "pub",
    "outdoor_seating": true,
    "city": "Helsinki"
  },
  {
    "id": "osm-node-1378007231",
    "name": "Annantalon kahvila",
    "address": "Annankatu 30",
    "lat": 60.1677953,
    "lon": 24.9346742,
    "amenity": "cafe",
    "outdoor_seating": null,
    "city": "Helsinki"
  },
  {
    "id": "osm-node-5649849379",
    "name": "Anne's Vege",
    "address": "Tapionaukio 4",
    "lat": 60.175677,
    "lon": 24.804689,
    "amenity": "restaurant",
    "outdoor_seating": null,
    "city": "Espoo"
  },
  {
    "id": "osm-node-7277738343",
    "name": "Antalya",
    "address": "Ostostie 4",
    "lat": 60.237316,
    "lon": 25.0836486,
    "amenity": "restaurant",
    "outdoor_seating": false,
    "city": "Helsinki"
  },
  {
    "id": "osm-node-2564039282",
    "name": "Antell",
    "address": "Arkadiankatu",
    "lat": 60.1710061,
    "lon": 24.9344395,
    "amenity": "restaurant",
    "outdoor_seating": null,
    "city": "Espoo"
  },
  {
    "id": "osm-node-4069605897",
    "name": "Antell Akavatalo",
    "address": "Rautatieläisenkatu 6",
    "lat": 60.2009612,
    "lon": 24.9373729,
    "amenity": "restaurant",
    "outdoor_seating": null,
    "city": "Helsinki"
  },
  {
    "id": "osm-node-13138322909",
    "name": "Antell Berlin/Vallila",
    "address": "Elimäenkatu 25-27",
    "lat": 60.1969628,
    "lon": 24.9481533,
    "amenity": "restaurant",
    "outdoor_seating": null,
    "city": "Helsinki"
  },
  {
    "id": "osm-node-7540580525",
    "name": "Antell Cafe 75",
    "address": "",
    "lat": 60.3042025,
    "lon": 25.0946769,
    "amenity": "restaurant",
    "outdoor_seating": null,
    "city": "Vantaa"
  },
  {
    "id": "osm-node-10095106042",
    "name": "Antell Femma",
    "address": "Itämerenkatu 5",
    "lat": 60.1641362,
    "lon": 24.9191471,
    "amenity": "restaurant",
    "outdoor_seating": null,
    "city": "Espoo"
  },
  {
    "id": "osm-node-11530731315",
    "name": "Antell Niittyportti (Kahvila)",
    "address": "Niittyportti 4",
    "lat": 60.1694904,
    "lon": 24.7702617,
    "amenity": "cafe",
    "outdoor_seating": false,
    "city": "Espoo"
  },
  {
    "id": "osm-node-11530731316",
    "name": "Antell Niittyportti (Ravintola)",
    "address": "Niittyportti 4",
    "lat": 60.1691143,
    "lon": 24.7703598,
    "amenity": "restaurant",
    "outdoor_seating": null,
    "city": "Espoo"
  },
  {
    "id": "osm-node-4069624672",
    "name": "Antell Vallilan Akseli",
    "address": "",
    "lat": 60.1963815,
    "lon": 24.9505766,
    "amenity": "restaurant",
    "outdoor_seating": null,
    "city": "Helsinki"
  },
  {
    "id": "osm-node-442059962",
    "name": "Antin Kaffeliiteri",
    "address": "",
    "lat": 60.1831369,
    "lon": 24.8850016,
    "amenity": "cafe",
    "outdoor_seating": null,
    "city": "Espoo"
  },
  {
    "id": "osm-node-673606089",
    "name": "Aperitivo by Alfons",
    "address": "Vuorimiehenkatu 18",
    "lat": 60.1591172,
    "lon": 24.9431025,
    "amenity": "restaurant",
    "outdoor_seating": true,
    "city": "Helsinki"
  },
  {
    "id": "osm-node-2264313695",
    "name": "Apéro",
    "address": "",
    "lat": 60.1642259,
    "lon": 24.929478,
    "amenity": "pub",
    "outdoor_seating": null,
    "city": "Espoo"
  },
  {
    "id": "osm-node-615217028",
    "name": "Apollo Street Bar",
    "address": "Mannerheimintie 20",
    "lat": 60.1688916,
    "lon": 24.9387208,
    "amenity": "bar",
    "outdoor_seating": null,
    "city": "Helsinki"
  },
  {
    "id": "osm-node-7872950470",
    "name": "Apotek viinibaari",
    "address": "Lapinlahdenkatu 1a",
    "lat": 60.1663647,
    "lon": 24.9324689,
    "amenity": "bar",
    "outdoor_seating": null,
    "city": "Espoo"
  },
  {
    "id": "osm-node-468454402",
    "name": "Arcada studerandekår (ASK)",
    "address": "Toukolankatu 11",
    "lat": 60.2022496,
    "lon": 24.9684118,
    "amenity": "restaurant",
    "outdoor_seating": null,
    "city": "Helsinki"
  },
  {
    "id": "osm-node-6745810064",
    "name": "Ariana Sish Grill",
    "address": "Hietakummuntie 16",
    "lat": 60.2494958,
    "lon": 25.0117289,
    "amenity": "restaurant",
    "outdoor_seating": false,
    "city": "Helsinki"
  },
  {
    "id": "osm-node-13937836842",
    "name": "Ariel Ravintola",
    "address": "Koksikatu 12",
    "lat": 60.1840815,
    "lon": 24.9752142,
    "amenity": "restaurant",
    "outdoor_seating": true,
    "city": "Helsinki"
  },
  {
    "id": "osm-node-7699177449",
    "name": "Arkade",
    "address": "Kalevankatu 30",
    "lat": 60.1655579,
    "lon": 24.9332615,
    "amenity": "bar",
    "outdoor_seating": null,
    "city": "Helsinki"
  },
  {
    "id": "osm-node-12153987544",
    "name": "ARKET Café",
    "address": "",
    "lat": 60.1685268,
    "lon": 24.9458077,
    "amenity": "cafe",
    "outdoor_seating": false,
    "city": "Helsinki"
  },
  {
    "id": "osm-node-5679162694",
    "name": "Arnolds",
    "address": "Vantaanportinkatu 3",
    "lat": 60.2921182,
    "lon": 24.9649138,
    "amenity": "cafe",
    "outdoor_seating": false,
    "city": "Vantaa"
  },
  {
    "id": "osm-node-6060938343",
    "name": "Arnolds",
    "address": "Hermannin rantatie 5",
    "lat": 60.1873194,
    "lon": 24.9786043,
    "amenity": "cafe",
    "outdoor_seating": null,
    "city": "Helsinki"
  },
  {
    "id": "osm-node-6080795911",
    "name": "Arnolds",
    "address": "Kantelettarentie 1",
    "lat": 60.2368393,
    "lon": 24.8910838,
    "amenity": "cafe",
    "outdoor_seating": false,
    "city": "Helsinki"
  },
  {
    "id": "osm-node-6090324870",
    "name": "Arnolds",
    "address": "Leppävaarankatu 3-9",
    "lat": 60.2180791,
    "lon": 24.8109581,
    "amenity": "cafe",
    "outdoor_seating": false,
    "city": "Espoo"
  },
  {
    "id": "osm-node-6139262633",
    "name": "Arnolds",
    "address": "Mannerheimintie 20",
    "lat": 60.16876,
    "lon": 24.9383015,
    "amenity": "cafe",
    "outdoor_seating": false,
    "city": "Helsinki"
  },
  {
    "id": "osm-node-7054853570",
    "name": "Arnolds",
    "address": "",
    "lat": 60.1987233,
    "lon": 24.9323079,
    "amenity": "cafe",
    "outdoor_seating": null,
    "city": "Espoo"
  },
  {
    "id": "osm-node-13513936118",
    "name": "Arnolds",
    "address": "Topaasikuja 8",
    "lat": 60.3139464,
    "lon": 24.8468605,
    "amenity": "cafe",
    "outdoor_seating": null,
    "city": "Vantaa"
  },
  {
    "id": "osm-node-1376356004",
    "name": "Arthur",
    "address": "",
    "lat": 60.1729642,
    "lon": 24.947954,
    "amenity": "restaurant",
    "outdoor_seating": null,
    "city": "Helsinki"
  },
  {
    "id": "osm-node-6316319505",
    "name": "Arvo",
    "address": "",
    "lat": 60.1860854,
    "lon": 24.8228823,
    "amenity": "restaurant",
    "outdoor_seating": true,
    "city": "Espoo"
  },
  {
    "id": "osm-node-3376404338",
    "name": "Asia Palace",
    "address": "",
    "lat": 60.148723,
    "lon": 24.8790092,
    "amenity": "restaurant",
    "outdoor_seating": null,
    "city": "Espoo"
  },
  {
    "id": "osm-node-10673453008",
    "name": "Askiston Taverna",
    "address": "Askistontie 1",
    "lat": 60.2868996,
    "lon": 24.7857397,
    "amenity": "restaurant",
    "outdoor_seating": true,
    "city": "Vantaa"
  },
  {
    "id": "osm-node-6041141798",
    "name": "Asukastalo Renki",
    "address": "Piianpolku 7",
    "lat": 60.2442501,
    "lon": 24.8578165,
    "amenity": "cafe",
    "outdoor_seating": null,
    "city": "Helsinki"
  },
  {
    "id": "osm-node-60133792",
    "name": "Ateljé Finne",
    "address": "Arkadiankatu 14",
    "lat": 60.1710786,
    "lon": 24.928585,
    "amenity": "restaurant",
    "outdoor_seating": null,
    "city": "Helsinki"
  },
  {
    "id": "osm-node-1377211664",
    "name": "Ateljée Bar Hotel Torni",
    "address": "Yrjönkatu 26",
    "lat": 60.16781,
    "lon": 24.9386445,
    "amenity": "bar",
    "outdoor_seating": true,
    "city": "Helsinki"
  },
  {
    "id": "osm-node-4518279089",
    "name": "Ateneum Bistro",
    "address": "Kaivokatu 2",
    "lat": 60.1700358,
    "lon": 24.9437993,
    "amenity": "restaurant",
    "outdoor_seating": null,
    "city": "Helsinki"
  },
  {
    "id": "osm-node-366867295",
    "name": "Auri Coffee",
    "address": "Tehtaankatu 25",
    "lat": 60.1579505,
    "lon": 24.9355791,
    "amenity": "cafe",
    "outdoor_seating": null,
    "city": "Helsinki"
  },
  {
    "id": "osm-node-1371731157",
    "name": "Aussie bar",
    "address": "Salomonkatu 5",
    "lat": 60.169973,
    "lon": 24.9329882,
    "amenity": "pub",
    "outdoor_seating": true,
    "city": "Helsinki"
  },
  {
    "id": "osm-node-10197832359",
    "name": "Ax Restaurant",
    "address": "",
    "lat": 60.1583255,
    "lon": 24.9139922,
    "amenity": "restaurant",
    "outdoor_seating": null,
    "city": "Espoo"
  },
  {
    "id": "osm-way-371691153",
    "name": "B-Side Bar",
    "address": "Työpajankatu 2",
    "lat": 60.1901678,
    "lon": 24.9722432,
    "amenity": "bar",
    "outdoor_seating": null,
    "city": "Helsinki"
  },
  {
    "id": "osm-node-606981023",
    "name": "B.B.Badger&Co.",
    "address": "Korkeavuorenkatu 25",
    "lat": 60.163438,
    "lon": 24.9463782,
    "amenity": "pub",
    "outdoor_seating": null,
    "city": "Helsinki"
  },
  {
    "id": "osm-node-415938556",
    "name": "B5 Black",
    "address": "Sandelsinkatu 1",
    "lat": 60.1788957,
    "lon": 24.9234786,
    "amenity": "cafe",
    "outdoor_seating": null,
    "city": "Helsinki"
  },
  {
    "id": "osm-node-8287422321",
    "name": "B5 Black",
    "address": "Sandelsinkatu 1",
    "lat": 60.1789836,
    "lon": 24.9235024,
    "amenity": "restaurant",
    "outdoor_seating": null,
    "city": "Espoo"
  },
  {
    "id": "osm-node-9015098225",
    "name": "Ba Bu",
    "address": "",
    "lat": 60.1989425,
    "lon": 24.9309794,
    "amenity": "restaurant",
    "outdoor_seating": false,
    "city": "Espoo"
  },
  {
    "id": "osm-node-11730141143",
    "name": "Baba Döner",
    "address": "Itäkatu 1-5",
    "lat": 60.2122699,
    "lon": 25.0826873,
    "amenity": "restaurant",
    "outdoor_seating": null,
    "city": "Helsinki"
  },
  {
    "id": "osm-node-9176378922",
    "name": "Baba's House",
    "address": "",
    "lat": 60.1546227,
    "lon": 24.9102824,
    "amenity": "restaurant",
    "outdoor_seating": null,
    "city": "Espoo"
  },
  {
    "id": "osm-node-2268402718",
    "name": "Bacco",
    "address": "Pohjoisesplanadi 9",
    "lat": 60.1680589,
    "lon": 24.9537498,
    "amenity": "restaurant",
    "outdoor_seating": true,
    "city": "Helsinki"
  },
  {
    "id": "osm-node-2289006131",
    "name": "Backaksen kartano kesäravintola",
    "address": "Ylästöntie 28",
    "lat": 60.2841155,
    "lon": 24.9528945,
    "amenity": "restaurant",
    "outdoor_seating": null,
    "city": "Vantaa"
  },
  {
    "id": "osm-node-119228575",
    "name": "Backas Bar",
    "address": "Mäkelänkatu 15",
    "lat": 60.19261,
    "lon": 24.9612206,
    "amenity": "pub",
    "outdoor_seating": null,
    "city": "Helsinki"
  },
  {
    "id": "osm-node-13203481655",
    "name": "Backyard",
    "address": "Itäkatu 1-7",
    "lat": 60.2111025,
    "lon": 25.0806012,
    "amenity": "restaurant",
    "outdoor_seating": null,
    "city": "Helsinki"
  },
  {
    "id": "osm-node-11209808056",
    "name": "Bagdad Cafe",
    "address": "",
    "lat": 60.2522119,
    "lon": 25.0057941,
    "amenity": "cafe",
    "outdoor_seating": null,
    "city": "Helsinki"
  },
  {
    "id": "osm-node-2269291121",
    "name": "Baicha",
    "address": "Mannerheimintie 49",
    "lat": 60.1892609,
    "lon": 24.9175602,
    "amenity": "restaurant",
    "outdoor_seating": null,
    "city": "Helsinki"
  },
  {
    "id": "osm-node-5012868053",
    "name": "Baked by Eli",
    "address": "",
    "lat": 60.1847117,
    "lon": 24.8276678,
    "amenity": "cafe",
    "outdoor_seating": null,
    "city": "Espoo"
  },
  {
    "id": "osm-node-11207379288",
    "name": "Bali",
    "address": "",
    "lat": 60.1938854,
    "lon": 24.9576474,
    "amenity": "restaurant",
    "outdoor_seating": null,
    "city": "Helsinki"
  },
  {
    "id": "osm-node-9197200279",
    "name": "Bali Brunch",
    "address": "",
    "lat": 60.2197296,
    "lon": 24.830424,
    "amenity": "restaurant",
    "outdoor_seating": null,
    "city": "Espoo"
  },
  {
    "id": "osm-node-283300371",
    "name": "Bambu Sushi",
    "address": "Helsinginkatu 4b",
    "lat": 60.1873527,
    "lon": 24.9591034,
    "amenity": "restaurant",
    "outdoor_seating": null,
    "city": "Helsinki"
  },
  {
    "id": "osm-node-610391715",
    "name": "Bambu Sushi Konepaja",
    "address": "Aleksis Kiven katu 58",
    "lat": 60.1924788,
    "lon": 24.9444844,
    "amenity": "restaurant",
    "outdoor_seating": null,
    "city": "Helsinki"
  },
  {
    "id": "osm-node-9712397576",
    "name": "Bangcook",
    "address": "Kantelettarentie 1",
    "lat": 60.2372081,
    "lon": 24.8906793,
    "amenity": "restaurant",
    "outdoor_seating": null,
    "city": "Helsinki"
  },
  {
    "id": "osm-node-5906657572",
    "name": "Bangkok9",
    "address": "Kaivokatu 8",
    "lat": 60.1699391,
    "lon": 24.9414296,
    "amenity": "restaurant",
    "outdoor_seating": false,
    "city": "Helsinki"
  },
  {
    "id": "osm-node-6987716928",
    "name": "Bangkok9",
    "address": "",
    "lat": 60.1985963,
    "lon": 24.929968,
    "amenity": "restaurant",
    "outdoor_seating": null,
    "city": "Espoo"
  },
  {
    "id": "osm-way-1011337671",
    "name": "Bangkok9 Iso Omena",
    "address": "Piispansilta 11",
    "lat": 60.1604989,
    "lon": 24.7377587,
    "amenity": "restaurant",
    "outdoor_seating": false,
    "city": "Espoo"
  },
  {
    "id": "osm-node-606944617",
    "name": "Bank bar and bistro",
    "address": "",
    "lat": 60.1659228,
    "lon": 24.9510331,
    "amenity": "restaurant",
    "outdoor_seating": null,
    "city": "Helsinki"
  },
  {
    "id": "osm-node-11164571306",
    "name": "Banu Cafe",
    "address": "Länsisatamankatu 24",
    "lat": 60.1571617,
    "lon": 24.9122746,
    "amenity": "restaurant",
    "outdoor_seating": null,
    "city": "Espoo"
  },
  {
    "id": "osm-node-977338117",
    "name": "Bar '52",
    "address": "",
    "lat": 60.1543194,
    "lon": 24.8799804,
    "amenity": "pub",
    "outdoor_seating": null,
    "city": "Espoo"
  },
  {
    "id": "osm-node-11764561880",
    "name": "Bar 34",
    "address": "Tikkuraitti 15",
    "lat": 60.2937098,
    "lon": 25.0345588,
    "amenity": "bar",
    "outdoor_seating": null,
    "city": "Vantaa"
  },
  {
    "id": "osm-node-252811307",
    "name": "Bar 36",
    "address": "Kuusitie 3",
    "lat": 60.1952162,
    "lon": 24.8999173,
    "amenity": "pub",
    "outdoor_seating": null,
    "city": "Espoo"
  },
  {
    "id": "osm-node-4574501489",
    "name": "Bar 62",
    "address": "Metsäpurontie 16",
    "lat": 60.2296527,
    "lon": 24.928136,
    "amenity": "pub",
    "outdoor_seating": null,
    "city": "Helsinki"
  },
  {
    "id": "osm-node-1930869347",
    "name": "Bar All In",
    "address": "",
    "lat": 60.1719525,
    "lon": 24.945371,
    "amenity": "bar",
    "outdoor_seating": null,
    "city": "Helsinki"
  },
  {
    "id": "osm-node-13231027660",
    "name": "Bar Baltic Bay",
    "address": "Bermudankatu 5",
    "lat": 60.1549146,
    "lon": 24.907064,
    "amenity": "bar",
    "outdoor_seating": null,
    "city": "Helsinki"
  },
  {
    "id": "osm-node-3632905509",
    "name": "Bar Bronco",
    "address": "Albertinkatu 36",
    "lat": 60.1646769,
    "lon": 24.9325548,
    "amenity": "pub",
    "outdoor_seating": null,
    "city": "Helsinki"
  },
  {
    "id": "osm-node-802811993",
    "name": "Bar Bumerang",
    "address": "Jakomäentie 24",
    "lat": 60.2540224,
    "lon": 25.0769233,
    "amenity": "restaurant",
    "outdoor_seating": null,
    "city": "Helsinki"
  },
  {
    "id": "osm-node-7913301843",
    "name": "Bar Böle",
    "address": "Maistraatinportti 3",
    "lat": 60.1987582,
    "lon": 24.9255478,
    "amenity": "bar",
    "outdoor_seating": null,
    "city": "Espoo"
  },
  {
    "id": "osm-node-229174383",
    "name": "Bar Chaplin",
    "address": "Vuorikatu 14",
    "lat": 60.1715906,
    "lon": 24.9463852,
    "amenity": "pub",
    "outdoor_seating": true,
    "city": "Helsinki"
  },
  {
    "id": "osm-node-1974783858",
    "name": "Bar Cheers",
    "address": "",
    "lat": 60.2214732,
    "lon": 25.138877,
    "amenity": "bar",
    "outdoor_seating": null,
    "city": "Helsinki"
  },
  {
    "id": "osm-node-60543533",
    "name": "Bar Favela",
    "address": "Mechelininkatu 13",
    "lat": 60.1719895,
    "lon": 24.9204769,
    "amenity": "bar",
    "outdoor_seating": true,
    "city": "Helsinki"
  },
  {
    "id": "osm-node-270162449",
    "name": "Bar Finnegans",
    "address": "Hyrylänkatu 8 B 4",
    "lat": 60.3977082,
    "lon": 25.019358,
    "amenity": "bar",
    "outdoor_seating": null,
    "city": "Vantaa"
  },
  {
    "id": "osm-node-8831560557",
    "name": "Bar Flagon",
    "address": "Vilhonvuorenkatu 5",
    "lat": 60.1874401,
    "lon": 24.9644246,
    "amenity": "bar",
    "outdoor_seating": null,
    "city": "Helsinki"
  },
  {
    "id": "osm-node-2225393039",
    "name": "Bar Haven",
    "address": "",
    "lat": 60.1664528,
    "lon": 24.9515553,
    "amenity": "bar",
    "outdoor_seating": null,
    "city": "Helsinki"
  },
  {
    "id": "osm-node-488233451",
    "name": "Bar Hippu",
    "address": "Uomatie 4",
    "lat": 60.2697285,
    "lon": 24.852475,
    "amenity": "pub",
    "outdoor_seating": null,
    "city": "Vantaa"
  },
  {
    "id": "osm-node-2283823149",
    "name": "Bar Jisto",
    "address": "Salpausseläntie 11",
    "lat": 60.2311156,
    "lon": 24.9999413,
    "amenity": "pub",
    "outdoor_seating": null,
    "city": "Helsinki"
  },
  {
    "id": "osm-node-13408892992",
    "name": "Bar K8",
    "address": "",
    "lat": 60.1640071,
    "lon": 24.9680254,
    "amenity": "bar",
    "outdoor_seating": null,
    "city": "Helsinki"
  },
  {
    "id": "osm-node-2096775082",
    "name": "Bar Kapsäkki",
    "address": "Hämeentie 68",
    "lat": 60.1902833,
    "lon": 24.964131,
    "amenity": "restaurant",
    "outdoor_seating": null,
    "city": "Helsinki"
  },
  {
    "id": "osm-node-257115706",
    "name": "Bar Keskari",
    "address": "Näyttelijäntie 14",
    "lat": 60.2296028,
    "lon": 24.896449,
    "amenity": "pub",
    "outdoor_seating": null,
    "city": "Helsinki"
  },
  {
    "id": "osm-node-1309640536",
    "name": "Bar Lab",
    "address": "",
    "lat": 60.1856073,
    "lon": 24.9463414,
    "amenity": "pub",
    "outdoor_seating": null,
    "city": "Helsinki"
  },
  {
    "id": "osm-node-4225300794",
    "name": "Bar Leinikki",
    "address": "Leinikkitie 20",
    "lat": 60.3097127,
    "lon": 25.0312601,
    "amenity": "bar",
    "outdoor_seating": null,
    "city": "Vantaa"
  },
  {
    "id": "osm-node-10840060005",
    "name": "Bar Lemppari",
    "address": "",
    "lat": 60.2292144,
    "lon": 24.8809765,
    "amenity": "bar",
    "outdoor_seating": null,
    "city": "Espoo"
  },
  {
    "id": "osm-node-1785364202",
    "name": "Bar Loose",
    "address": "Annankatu 21",
    "lat": 60.1666872,
    "lon": 24.9374004,
    "amenity": "pub",
    "outdoor_seating": null,
    "city": "Helsinki"
  },
  {
    "id": "osm-node-2703784725",
    "name": "Bar Loosister",
    "address": "Hämeentie 50",
    "lat": 60.1870486,
    "lon": 24.9611381,
    "amenity": "pub",
    "outdoor_seating": false,
    "city": "Helsinki"
  },
  {
    "id": "osm-node-11945164571",
    "name": "Bar Mate",
    "address": "",
    "lat": 60.1642604,
    "lon": 24.9452806,
    "amenity": "bar",
    "outdoor_seating": true,
    "city": "Helsinki"
  },
  {
    "id": "osm-node-7078186385",
    "name": "Bar Mister X",
    "address": "",
    "lat": 60.2363182,
    "lon": 25.0829585,
    "amenity": "bar",
    "outdoor_seating": null,
    "city": "Helsinki"
  },
  {
    "id": "osm-node-828455130",
    "name": "Bar Molotow",
    "address": "Vaasankatu 29",
    "lat": 60.1884876,
    "lon": 24.9536176,
    "amenity": "bar",
    "outdoor_seating": null,
    "city": "Helsinki"
  },
  {
    "id": "osm-node-12966465990",
    "name": "Bar Munkkis",
    "address": "Huopalahdentie 19",
    "lat": 60.2010855,
    "lon": 24.8831816,
    "amenity": "pub",
    "outdoor_seating": null,
    "city": "Espoo"
  },
  {
    "id": "osm-node-1540738321",
    "name": "Bar Nr.1",
    "address": "",
    "lat": 60.2771032,
    "lon": 24.8514475,
    "amenity": "pub",
    "outdoor_seating": null,
    "city": "Espoo"
  },
  {
    "id": "osm-node-435825985",
    "name": "Bar Oljenkorsi",
    "address": "Intiankatu 18",
    "lat": 60.2073198,
    "lon": 24.9686854,
    "amenity": "pub",
    "outdoor_seating": true,
    "city": "Helsinki"
  },
  {
    "id": "osm-node-249344981",
    "name": "Bar Palmu",
    "address": "Vaasankatu 4",
    "lat": 60.188209,
    "lon": 24.9588731,
    "amenity": "pub",
    "outdoor_seating": null,
    "city": "Helsinki"
  },
  {
    "id": "osm-node-8977942409",
    "name": "Bar Pikajuna",
    "address": "Fredikanterassi 1",
    "lat": 60.199097,
    "lon": 24.9337478,
    "amenity": "bar",
    "outdoor_seating": null,
    "city": "Helsinki"
  },
  {
    "id": "osm-node-300284784",
    "name": "Bar Pinetto",
    "address": "Keinulaudantie 2a",
    "lat": 60.2360964,
    "lon": 25.0814926,
    "amenity": "bar",
    "outdoor_seating": true,
    "city": "Helsinki"
  },
  {
    "id": "osm-node-13043431547",
    "name": "Bar PintStop",
    "address": "Kuusiniementie 1",
    "lat": 60.2270311,
    "lon": 24.7401063,
    "amenity": "bar",
    "outdoor_seating": true,
    "city": "Espoo"
  },
  {
    "id": "osm-node-2070223678",
    "name": "Bar Puotila",
    "address": "Klaavuntie 11",
    "lat": 60.2126633,
    "lon": 25.0962522,
    "amenity": "pub",
    "outdoor_seating": true,
    "city": "Helsinki"
  },
  {
    "id": "osm-node-480756098",
    "name": "Bar Tapulin Piano",
    "address": "",
    "lat": 60.275665,
    "lon": 25.0340883,
    "amenity": "pub",
    "outdoor_seating": null,
    "city": "Helsinki"
  },
  {
    "id": "osm-node-319917192",
    "name": "Bar Teos",
    "address": "Runeberginkatu 61",
    "lat": 60.1805235,
    "lon": 24.924872,
    "amenity": "bar",
    "outdoor_seating": null,
    "city": "Helsinki"
  },
  {
    "id": "osm-node-13866853288",
    "name": "Bar Teos",
    "address": "",
    "lat": 60.1935037,
    "lon": 24.9457879,
    "amenity": "bar",
    "outdoor_seating": null,
    "city": "Helsinki"
  },
  {
    "id": "osm-node-4776225421",
    "name": "Barbarossa Pizza & Kebab",
    "address": "Kampinkuja 2",
    "lat": 60.1681856,
    "lon": 24.9309163,
    "amenity": "restaurant",
    "outdoor_seating": false,
    "city": "Espoo"
  },
  {
    "id": "osm-node-12379029348",
    "name": "Barbers & Beer Company",
    "address": "Neljäs linja 17-19",
    "lat": 60.1842327,
    "lon": 24.9480983,
    "amenity": "bar",
    "outdoor_seating": null,
    "city": "Helsinki"
  },
  {
    "id": "osm-node-4865883650",
    "name": "Barcelo",
    "address": "Uudenmaankatu 16",
    "lat": 60.1641477,
    "lon": 24.9401935,
    "amenity": "bar",
    "outdoor_seating": null,
    "city": "Helsinki"
  },
  {
    "id": "osm-node-7414771954",
    "name": "Bardem",
    "address": "Yliopistonkatu 7",
    "lat": 60.1698909,
    "lon": 24.9457063,
    "amenity": "bar",
    "outdoor_seating": null,
    "city": "Helsinki"
  },
  {
    "id": "osm-node-7086261469",
    "name": "Barley & Bait",
    "address": "Välimerenkatu 20",
    "lat": 60.1582365,
    "lon": 24.9137233,
    "amenity": "pub",
    "outdoor_seating": null,
    "city": "Espoo"
  },
  {
    "id": "osm-node-4691849225",
    "name": "Basbas Kulma",
    "address": "Tehtaankatu 27-29",
    "lat": 60.157811,
    "lon": 24.9337583,
    "amenity": "bar",
    "outdoor_seating": null,
    "city": "Helsinki"
  },
  {
    "id": "osm-node-4691849230",
    "name": "Basbas Studio",
    "address": "Pursimiehenkatu 27",
    "lat": 60.1587151,
    "lon": 24.9353604,
    "amenity": "restaurant",
    "outdoor_seating": null,
    "city": "Helsinki"
  },
  {
    "id": "osm-node-2264356392",
    "name": "Base Bar",
    "address": "Kalevankatu 3",
    "lat": 60.1679537,
    "lon": 24.9395138,
    "amenity": "pub",
    "outdoor_seating": true,
    "city": "Helsinki"
  },
  {
    "id": "osm-node-11813478702",
    "name": "Basilios",
    "address": "Ruukkutori 1",
    "lat": 60.2618498,
    "lon": 24.8528215,
    "amenity": "restaurant",
    "outdoor_seating": null,
    "city": "Vantaa"
  },
  {
    "id": "osm-node-5708577123",
    "name": "Baskeri & Basso",
    "address": "Tehtaankatu 27-29",
    "lat": 60.1579775,
    "lon": 24.933843,
    "amenity": "restaurant",
    "outdoor_seating": null,
    "city": "Helsinki"
  },
  {
    "id": "osm-node-4917463551",
    "name": "Baskeri & Basso Bistro",
    "address": "Tehtaankatu 27-29",
    "lat": 60.1578629,
    "lon": 24.9343675,
    "amenity": "restaurant",
    "outdoor_seating": null,
    "city": "Helsinki"
  },
  {
    "id": "osm-way-24904043",
    "name": "Bastion Bistro",
    "address": "C 8",
    "lat": 60.1483062,
    "lon": 24.983419,
    "amenity": "restaurant",
    "outdoor_seating": null,
    "city": "Helsinki"
  },
  {
    "id": "osm-node-10256425379",
    "name": "Baston",
    "address": "Unikkotie 11",
    "lat": 60.2933668,
    "lon": 25.0354577,
    "amenity": "bar",
    "outdoor_seating": true,
    "city": "Vantaa"
  },
  {
    "id": "osm-node-6895669142",
    "name": "Be My Guest",
    "address": "Välimerenkatu 14",
    "lat": 60.1588048,
    "lon": 24.9157151,
    "amenity": "restaurant",
    "outdoor_seating": null,
    "city": "Espoo"
  },
  {
    "id": "osm-node-13647331901",
    "name": "Beaky Basterd & Co.",
    "address": "Ankkurikatu 5",
    "lat": 60.1668076,
    "lon": 24.9641898,
    "amenity": "bar",
    "outdoor_seating": null,
    "city": "Helsinki"
  },
  {
    "id": "osm-node-662754218",
    "name": "Bear Chicken",
    "address": "Leppävaarankatu 3-9",
    "lat": 60.2187965,
    "lon": 24.8128499,
    "amenity": "restaurant",
    "outdoor_seating": null,
    "city": "Espoo"
  },
  {
    "id": "osm-node-2222510493",
    "name": "Beard Park Cafe",
    "address": "Agricolankatu 13",
    "lat": 60.1843224,
    "lon": 24.9518973,
    "amenity": "cafe",
    "outdoor_seating": null,
    "city": "Helsinki"
  },
  {
    "id": "osm-node-12673723256",
    "name": "Bedouin Ravintola",
    "address": "Jönsaksentie 6",
    "lat": 60.2619438,
    "lon": 24.8560618,
    "amenity": "restaurant",
    "outdoor_seating": null,
    "city": "Vantaa"
  },
  {
    "id": "osm-node-8655999400",
    "name": "Beef & Grill",
    "address": "Länsituuli 10",
    "lat": 60.1759327,
    "lon": 24.8033975,
    "amenity": "restaurant",
    "outdoor_seating": null,
    "city": "Espoo"
  },
  {
    "id": "osm-node-4093269389",
    "name": "Beer&Café Solmu",
    "address": "Jaspiskuja 5",
    "lat": 60.3167647,
    "lon": 24.8478826,
    "amenity": "cafe",
    "outdoor_seating": null,
    "city": "Vantaa"
  },
  {
    "id": "osm-node-1380974070",
    "name": "Belge",
    "address": "Kluuvikatu 5",
    "lat": 60.1693633,
    "lon": 24.9476344,
    "amenity": "restaurant",
    "outdoor_seating": true,
    "city": "Helsinki"
  },
  {
    "id": "osm-node-448759226",
    "name": "Bella Marina",
    "address": "Aurinkoranta 10",
    "lat": 60.2014718,
    "lon": 25.1509612,
    "amenity": "restaurant",
    "outdoor_seating": null,
    "city": "Helsinki"
  },
  {
    "id": "osm-node-8355681385",
    "name": "Bella Marina",
    "address": "Reginankuja 3",
    "lat": 60.1851126,
    "lon": 25.0283876,
    "amenity": "restaurant",
    "outdoor_seating": null,
    "city": "Helsinki"
  },
  {
    "id": "osm-node-11330666239",
    "name": "Belle Baguette",
    "address": "Koskelantie 56",
    "lat": 60.2131583,
    "lon": 24.9571163,
    "amenity": "cafe",
    "outdoor_seating": true,
    "city": "Helsinki"
  },
  {
    "id": "osm-node-13245369201",
    "name": "Belle Baguette",
    "address": "Jätkäsaarenkuja 13",
    "lat": 60.158229,
    "lon": 24.9171649,
    "amenity": "cafe",
    "outdoor_seating": null,
    "city": "Espoo"
  },
  {
    "id": "osm-node-1533456538",
    "name": "Belmont",
    "address": "Hakaniemenkatu 7",
    "lat": 60.1788939,
    "lon": 24.9546317,
    "amenity": "restaurant",
    "outdoor_seating": null,
    "city": "Helsinki"
  },
  {
    "id": "osm-node-96514512",
    "name": "Ben's Way",
    "address": "Kauppakartanonkatu 10",
    "lat": 60.2091436,
    "lon": 25.0881984,
    "amenity": "restaurant",
    "outdoor_seating": null,
    "city": "Helsinki"
  },
  {
    "id": "osm-node-12137488201",
    "name": "Bentosi",
    "address": "",
    "lat": 60.1713598,
    "lon": 24.926116,
    "amenity": "restaurant",
    "outdoor_seating": false,
    "city": "Espoo"
  },
  {
    "id": "osm-node-1211062446",
    "name": "Bhangra",
    "address": "Runeberginkatu 28",
    "lat": 60.1746504,
    "lon": 24.9218738,
    "amenity": "bar",
    "outdoor_seating": null,
    "city": "Helsinki"
  },
  {
    "id": "osm-node-6896301424",
    "name": "Biang!",
    "address": "",
    "lat": 60.1753912,
    "lon": 24.8038062,
    "amenity": "restaurant",
    "outdoor_seating": null,
    "city": "Espoo"
  },
  {
    "id": "osm-node-11546979308",
    "name": "Bibi",
    "address": "Kauppakartanonkatu 3",
    "lat": 60.2094236,
    "lon": 25.0857291,
    "amenity": "restaurant",
    "outdoor_seating": null,
    "city": "Helsinki"
  },
  {
    "id": "osm-node-7646246528",
    "name": "Biblos",
    "address": "Eteläesplanadi 22",
    "lat": 60.166916,
    "lon": 24.9450057,
    "amenity": "restaurant",
    "outdoor_seating": null,
    "city": "Helsinki"
  },
  {
    "id": "osm-node-13612280601",
    "name": "Biblos Helsinki",
    "address": "",
    "lat": 60.1665879,
    "lon": 24.9447345,
    "amenity": "restaurant",
    "outdoor_seating": null,
    "city": "Helsinki"
  },
  {
    "id": "osm-node-3423321083",
    "name": "Bier-Bier",
    "address": "Erottajankatu 13",
    "lat": 60.1655454,
    "lon": 24.9441443,
    "amenity": "pub",
    "outdoor_seating": true,
    "city": "Helsinki"
  },
  {
    "id": "osm-node-6959578642",
    "name": "Bierhaus Berlin",
    "address": "Firdonkatu 2 B",
    "lat": 60.1978531,
    "lon": 24.9289271,
    "amenity": "pub",
    "outdoor_seating": null,
    "city": "Helsinki"
  },
  {
    "id": "osm-node-2258200685",
    "name": "Bierhaus Köln",
    "address": "",
    "lat": 60.2518816,
    "lon": 25.009189,
    "amenity": "pub",
    "outdoor_seating": null,
    "city": "Helsinki"
  },
  {
    "id": "osm-node-2917442967",
    "name": "Bierhaus München",
    "address": "Töölönlahdenkatu 3",
    "lat": 60.1730732,
    "lon": 24.9393613,
    "amenity": "pub",
    "outdoor_seating": true,
    "city": "Helsinki"
  },
  {
    "id": "osm-node-9113815604",
    "name": "Bierhuis Rotterdam",
    "address": "Tennispalatsinaukio 4",
    "lat": 60.1691683,
    "lon": 24.9326388,
    "amenity": "pub",
    "outdoor_seating": true,
    "city": "Helsinki"
  },
  {
    "id": "osm-node-1958398519",
    "name": "Big Bite - Konala",
    "address": "Vanha Hämeenkyläntie 9",
    "lat": 60.2342328,
    "lon": 24.8432837,
    "amenity": "restaurant",
    "outdoor_seating": null,
    "city": "Helsinki"
  },
  {
    "id": "osm-node-7078246880",
    "name": "Biljardibar Fiesta",
    "address": "",
    "lat": 60.2367639,
    "lon": 25.0823422,
    "amenity": "bar",
    "outdoor_seating": null,
    "city": "Helsinki"
  },
  {
    "id": "osm-node-9166059024",
    "name": "Bimbimbap",
    "address": "Runeberginkatu 34",
    "lat": 60.1772671,
    "lon": 24.9221912,
    "amenity": "restaurant",
    "outdoor_seating": null,
    "city": "Helsinki"
  },
  {
    "id": "osm-node-1199170124",
    "name": "Birdie Numnum",
    "address": "Hämeentie 2",
    "lat": 60.1804144,
    "lon": 24.9509034,
    "amenity": "restaurant",
    "outdoor_seating": null,
    "city": "Helsinki"
  },
  {
    "id": "osm-node-11123449957",
    "name": "Bisan majan kahvila",
    "address": "Bisajärventie",
    "lat": 60.3038621,
    "lon": 25.1521098,
    "amenity": "cafe",
    "outdoor_seating": null,
    "city": "Vantaa"
  },
  {
    "id": "osm-node-12817090567",
    "name": "BISOUBISOU brasserie & bar",
    "address": "Hermannin rantatie 9",
    "lat": 60.1876988,
    "lon": 24.9779444,
    "amenity": "restaurant",
    "outdoor_seating": null,
    "city": "Helsinki"
  },
  {
    "id": "osm-node-8933325011",
    "name": "Bissepub",
    "address": "",
    "lat": 60.23228,
    "lon": 25.0836647,
    "amenity": "pub",
    "outdoor_seating": null,
    "city": "Helsinki"
  },
  {
    "id": "osm-node-13064891737",
    "name": "Bistro Bardot",
    "address": "Kluuvikatu 1",
    "lat": 60.1681435,
    "lon": 24.947721,
    "amenity": "restaurant",
    "outdoor_seating": null,
    "city": "Helsinki"
  },
  {
    "id": "osm-node-6473839610",
    "name": "Bistro Bron",
    "address": "Mischan ja Maschan aukio 1",
    "lat": 60.1768251,
    "lon": 24.983262,
    "amenity": "cafe",
    "outdoor_seating": true,
    "city": "Helsinki"
  },
  {
    "id": "osm-node-9754245274",
    "name": "Bistro Bryk",
    "address": "Hämeentie 135A",
    "lat": 60.208551,
    "lon": 24.9754526,
    "amenity": "restaurant",
    "outdoor_seating": true,
    "city": "Helsinki"
  },
  {
    "id": "osm-node-10692605574",
    "name": "Bistro Café Sommarö",
    "address": "Suvisaarentie 23",
    "lat": 60.1276708,
    "lon": 24.7037674,
    "amenity": "cafe",
    "outdoor_seating": true,
    "city": "Espoo"
  },
  {
    "id": "osm-node-10707934318",
    "name": "Bistro Del Mar",
    "address": "Työnjohtajankatu 5",
    "lat": 60.1964498,
    "lon": 25.0369565,
    "amenity": "restaurant",
    "outdoor_seating": null,
    "city": "Helsinki"
  },
  {
    "id": "osm-node-1375925295",
    "name": "Bistro Gimis",
    "address": "Ruoholahdenranta 3",
    "lat": 60.1621151,
    "lon": 24.9242485,
    "amenity": "restaurant",
    "outdoor_seating": null,
    "city": "Helsinki"
  },
  {
    "id": "osm-node-9754264197",
    "name": "Bistro K",
    "address": "Hämeentie 68",
    "lat": 60.1901899,
    "lon": 24.9640456,
    "amenity": "restaurant",
    "outdoor_seating": null,
    "city": "Helsinki"
  },
  {
    "id": "osm-node-11188387874",
    "name": "Bistro Le Coin",
    "address": "Siltasaarenkatu 6-10",
    "lat": 60.1782385,
    "lon": 24.9496361,
    "amenity": "restaurant",
    "outdoor_seating": null,
    "city": "Helsinki"
  },
  {
    "id": "osm-node-7988607923",
    "name": "Bistro Liekki Puuhiiligrilli",
    "address": "Talvikkitie 30",
    "lat": 60.2930491,
    "lon": 25.0319249,
    "amenity": "restaurant",
    "outdoor_seating": null,
    "city": "Vantaa"
  },
  {
    "id": "osm-node-8538097838",
    "name": "Bistro Liekki Vernissakatu",
    "address": "Vernissakatu 4",
    "lat": 60.2902578,
    "lon": 25.0439637,
    "amenity": "restaurant",
    "outdoor_seating": null,
    "city": "Vantaa"
  },
  {
    "id": "osm-node-1371731167",
    "name": "Bistro Manu",
    "address": "Eteläinen Rautatiekatu 4",
    "lat": 60.1703164,
    "lon": 24.9325238,
    "amenity": "restaurant",
    "outdoor_seating": true,
    "city": "Helsinki"
  },
  {
    "id": "osm-node-611766888",
    "name": "Bistro Maria",
    "address": "",
    "lat": 60.1984251,
    "lon": 24.8773905,
    "amenity": "restaurant",
    "outdoor_seating": null,
    "city": "Helsinki"
  },
  {
    "id": "osm-node-600096224",
    "name": "Bistro O",
    "address": "Olympiaranta 1",
    "lat": 60.1605118,
    "lon": 24.9591308,
    "amenity": "restaurant",
    "outdoor_seating": null,
    "city": "Helsinki"
  },
  {
    "id": "osm-node-11233732898",
    "name": "Bistro O mat",
    "address": "",
    "lat": 60.1815296,
    "lon": 24.9489472,
    "amenity": "restaurant",
    "outdoor_seating": null,
    "city": "Helsinki"
  },
  {
    "id": "osm-node-6896301426",
    "name": "Bistro O Mat",
    "address": "",
    "lat": 60.1754893,
    "lon": 24.8036225,
    "amenity": "restaurant",
    "outdoor_seating": null,
    "city": "Espoo"
  },
  {
    "id": "osm-node-13630275960",
    "name": "Bistro Palo",
    "address": "Vanha Helsingintie 19",
    "lat": 60.2496439,
    "lon": 25.0097841,
    "amenity": "restaurant",
    "outdoor_seating": null,
    "city": "Helsinki"
  },
  {
    "id": "osm-node-746457581",
    "name": "Bistro Pasila",
    "address": "Asemapäällikönkatu 3",
    "lat": 60.199217,
    "lon": 24.9420976,
    "amenity": "restaurant",
    "outdoor_seating": null,
    "city": "Helsinki"
  },
  {
    "id": "osm-node-93455942",
    "name": "Bistro Vilho",
    "address": "Mikonkatu 23",
    "lat": 60.172137,
    "lon": 24.9457455,
    "amenity": "restaurant",
    "outdoor_seating": null,
    "city": "Helsinki"
  },
  {
    "id": "osm-node-4798675178",
    "name": "Bites",
    "address": "",
    "lat": 60.1956083,
    "lon": 24.9511228,
    "amenity": "restaurant",
    "outdoor_seating": null,
    "city": "Helsinki"
  },
  {
    "id": "osm-node-339989946",
    "name": "Bla Bla Bla",
    "address": "Tikkuraitti 13",
    "lat": 60.2935634,
    "lon": 25.0355365,
    "amenity": "cafe",
    "outdoor_seating": true,
    "city": "Vantaa"
  },
  {
    "id": "osm-node-7988680027",
    "name": "Black & White",
    "address": "Peltolantie 2",
    "lat": 60.2932449,
    "lon": 25.0314334,
    "amenity": "restaurant",
    "outdoor_seating": null,
    "city": "Vantaa"
  },
  {
    "id": "osm-node-61891088",
    "name": "Black Bird",
    "address": "Turunlinnantie 8",
    "lat": 60.2114304,
    "lon": 25.0810442,
    "amenity": "pub",
    "outdoor_seating": null,
    "city": "Helsinki"
  },
  {
    "id": "osm-node-5368320181",
    "name": "Black Door",
    "address": "Iso Roobertinkatu",
    "lat": 60.1641432,
    "lon": 24.9437404,
    "amenity": "pub",
    "outdoor_seating": true,
    "city": "Helsinki"
  },
  {
    "id": "osm-node-1606898175",
    "name": "Blancco",
    "address": "Pitäjänmäentie 14",
    "lat": 60.2148543,
    "lon": 24.8759926,
    "amenity": "restaurant",
    "outdoor_seating": null,
    "city": "Helsinki"
  },
  {
    "id": "osm-node-10904389168",
    "name": "Blanda",
    "address": "Aleksanterinkatu 22",
    "lat": 60.1689559,
    "lon": 24.9527584,
    "amenity": "bar",
    "outdoor_seating": null,
    "city": "Helsinki"
  },
  {
    "id": "osm-node-1975276944",
    "name": "BLINIt",
    "address": "Sturenkatu 9",
    "lat": 60.1879372,
    "lon": 24.9451876,
    "amenity": "restaurant",
    "outdoor_seating": null,
    "city": "Helsinki"
  },
  {
    "id": "osm-node-5012868059",
    "name": "Bliss",
    "address": "Maarintie 6",
    "lat": 60.1872912,
    "lon": 24.8162538,
    "amenity": "restaurant",
    "outdoor_seating": false,
    "city": "Espoo"
  },
  {
    "id": "osm-node-309713535",
    "name": "Block by Dylan",
    "address": "Eteläranta 18",
    "lat": 60.166804,
    "lon": 24.9522041,
    "amenity": "restaurant",
    "outdoor_seating": true,
    "city": "Helsinki"
  },
  {
    "id": "osm-node-11741753796",
    "name": "Blondie",
    "address": "Vaasankatu 8",
    "lat": 60.1882491,
    "lon": 24.9574519,
    "amenity": "restaurant",
    "outdoor_seating": null,
    "city": "Helsinki"
  },
  {
    "id": "osm-node-1738237257",
    "name": "Blondie's Sport Bar & Food",
    "address": "Valimotie 2",
    "lat": 60.2158707,
    "lon": 24.8759594,
    "amenity": "pub",
    "outdoor_seating": true,
    "city": "Helsinki"
  },
  {
    "id": "osm-node-7554044578",
    "name": "Blue Moon",
    "address": "Lansantie 23",
    "lat": 60.2118918,
    "lon": 24.7677051,
    "amenity": "pub",
    "outdoor_seating": null,
    "city": "Espoo"
  },
  {
    "id": "osm-node-9218424066",
    "name": "Blue Ocean",
    "address": "Hopeatie 1",
    "lat": 60.229776,
    "lon": 24.8817768,
    "amenity": "pub",
    "outdoor_seating": null,
    "city": "Helsinki"
  },
  {
    "id": "osm-way-93983220",
    "name": "Blue Peter",
    "address": "Vattuniemen puistotie 1",
    "lat": 60.1516419,
    "lon": 24.8915123,
    "amenity": "restaurant",
    "outdoor_seating": null,
    "city": "Helsinki"
  },
  {
    "id": "osm-node-12526763988",
    "name": "Blue Pizzeria",
    "address": "",
    "lat": 60.2131767,
    "lon": 25.0798897,
    "amenity": "restaurant",
    "outdoor_seating": null,
    "city": "Helsinki"
  },
  {
    "id": "osm-node-8831616512",
    "name": "Boa & Bim",
    "address": "Käenkuja 4",
    "lat": 60.1861049,
    "lon": 24.9620043,
    "amenity": "cafe",
    "outdoor_seating": null,
    "city": "Helsinki"
  },
  {
    "id": "osm-node-12055157715",
    "name": "Bob Lunch & Café",
    "address": "",
    "lat": 60.2108338,
    "lon": 24.8138452,
    "amenity": "cafe",
    "outdoor_seating": null,
    "city": "Espoo"
  },
  {
    "id": "osm-node-10932053714",
    "name": "Bob's Laundry",
    "address": "Merimiehenkatu 40",
    "lat": 60.1591292,
    "lon": 24.9328585,
    "amenity": "bar",
    "outdoor_seating": false,
    "city": "Espoo"
  },
  {
    "id": "osm-node-12709366618",
    "name": "Boba Bao",
    "address": "Simonkatu 10",
    "lat": 60.1687567,
    "lon": 24.9358182,
    "amenity": "cafe",
    "outdoor_seating": null,
    "city": "Helsinki"
  },
  {
    "id": "osm-node-10174654011",
    "name": "Bodom Bar & Sauna",
    "address": "Merituulentie 35",
    "lat": 60.1708715,
    "lon": 24.7568327,
    "amenity": "bar",
    "outdoor_seating": null,
    "city": "Espoo"
  },
  {
    "id": "osm-node-1530480602",
    "name": "Boka",
    "address": "Hämeentie 20",
    "lat": 60.1820621,
    "lon": 24.9553904,
    "amenity": "restaurant",
    "outdoor_seating": null,
    "city": "Helsinki"
  },
  {
    "id": "osm-node-464729844",
    "name": "Bollis Bar & Bistro",
    "address": "Urheilukatu 5",
    "lat": 60.1873363,
    "lon": 24.9218792,
    "amenity": "restaurant",
    "outdoor_seating": null,
    "city": "Helsinki"
  },
  {
    "id": "osm-node-1686189018",
    "name": "Bon Temps Cafe",
    "address": "",
    "lat": 60.1933666,
    "lon": 24.9061434,
    "amenity": "cafe",
    "outdoor_seating": null,
    "city": "Espoo"
  },
  {
    "id": "osm-node-2268402715",
    "name": "Bona Fide",
    "address": "Vironkatu 8",
    "lat": 60.1722304,
    "lon": 24.9555756,
    "amenity": "restaurant",
    "outdoor_seating": null,
    "city": "Helsinki"
  },
  {
    "id": "osm-node-7180788787",
    "name": "Bonbon Coffee",
    "address": "Mechelininkatu 51",
    "lat": 60.1848038,
    "lon": 24.916323,
    "amenity": "cafe",
    "outdoor_seating": null,
    "city": "Helsinki"
  },
  {
    "id": "osm-node-7086261470",
    "name": "Boneless",
    "address": "Välimerenkatu 24",
    "lat": 60.1576178,
    "lon": 24.9118972,
    "amenity": "restaurant",
    "outdoor_seating": null,
    "city": "Helsinki"
  },
  {
    "id": "osm-node-11172573697",
    "name": "Boneless",
    "address": "Kauniaistentie 7",
    "lat": 60.2104642,
    "lon": 24.7284358,
    "amenity": "restaurant",
    "outdoor_seating": false,
    "city": "Espoo"
  },
  {
    "id": "osm-node-13086374195",
    "name": "Boneless",
    "address": "Vehkapolku 10",
    "lat": 60.2924715,
    "lon": 25.0403282,
    "amenity": "restaurant",
    "outdoor_seating": null,
    "city": "Vantaa"
  },
  {
    "id": "osm-node-13827239750",
    "name": "Boneless Oulunkylä",
    "address": "Teininrinne 7",
    "lat": 60.2318747,
    "lon": 24.9587764,
    "amenity": "restaurant",
    "outdoor_seating": false,
    "city": "Helsinki"
  },
  {
    "id": "osm-node-13242786401",
    "name": "Bonito",
    "address": "Rikhardinkatu 4",
    "lat": 60.1659535,
    "lon": 24.9460897,
    "amenity": "restaurant",
    "outdoor_seating": null,
    "city": "Helsinki"
  },
  {
    "id": "osm-node-10729582405",
    "name": "Boon Nam",
    "address": "Lönnrotinkatu 4",
    "lat": 60.1670958,
    "lon": 24.9410071,
    "amenity": "restaurant",
    "outdoor_seating": null,
    "city": "Helsinki"
  },
  {
    "id": "osm-node-151007198",
    "name": "Boothill Rock Club",
    "address": "Lönnrotinkatu 25",
    "lat": 60.1647048,
    "lon": 24.9334065,
    "amenity": "pub",
    "outdoor_seating": null,
    "city": "Helsinki"
  },
  {
    "id": "osm-node-2249127684",
    "name": "Boreal",
    "address": "Uudenmaankatu 9",
    "lat": 60.1650264,
    "lon": 24.9420466,
    "amenity": "restaurant",
    "outdoor_seating": null,
    "city": "Helsinki"
  },
  {
    "id": "osm-node-3376395262",
    "name": "Borneo",
    "address": "",
    "lat": 60.1521142,
    "lon": 24.8799736,
    "amenity": "restaurant",
    "outdoor_seating": null,
    "city": "Helsinki"
  },
  {
    "id": "osm-node-1533487184",
    "name": "Box Tuohi",
    "address": "John Stenbergin ranta 6",
    "lat": 60.177971,
    "lon": 24.9515381,
    "amenity": "restaurant",
    "outdoor_seating": null,
    "city": "Helsinki"
  },
  {
    "id": "osm-node-9749921601",
    "name": "Brasa",
    "address": "Aleksanterinkatu 22",
    "lat": 60.1688936,
    "lon": 24.9527389,
    "amenity": "restaurant",
    "outdoor_seating": null,
    "city": "Helsinki"
  },
  {
    "id": "osm-node-11813448300",
    "name": "BRASA Cabinet 36 person",
    "address": "Aleksanterinkatu 22",
    "lat": 60.1689796,
    "lon": 24.9526977,
    "amenity": "restaurant",
    "outdoor_seating": null,
    "city": "Helsinki"
  },
  {
    "id": "osm-node-8601392838",
    "name": "Brasserie Grand",
    "address": "Vilhonkatu 13",
    "lat": 60.1720725,
    "lon": 24.942269,
    "amenity": "restaurant",
    "outdoor_seating": null,
    "city": "Helsinki"
  },
  {
    "id": "osm-node-1369465673",
    "name": "Brasserie Le Havre",
    "address": "Kaivokatu 12",
    "lat": 60.1700749,
    "lon": 24.9395098,
    "amenity": "restaurant",
    "outdoor_seating": null,
    "city": "Helsinki"
  },
  {
    "id": "osm-node-1985598534",
    "name": "Brasserie Lionne",
    "address": "Pohjoisesplanadi 37",
    "lat": 60.1678261,
    "lon": 24.9445928,
    "amenity": "restaurant",
    "outdoor_seating": true,
    "city": "Helsinki"
  },
  {
    "id": "osm-node-8874925438",
    "name": "Bricco",
    "address": "Kalevankatu 4",
    "lat": 60.1677695,
    "lon": 24.9396204,
    "amenity": "bar",
    "outdoor_seating": true,
    "city": "Espoo"
  },
  {
    "id": "osm-node-11185475683",
    "name": "Brindavan",
    "address": "",
    "lat": 60.1965787,
    "lon": 24.9414136,
    "amenity": "restaurant",
    "outdoor_seating": null,
    "city": "Helsinki"
  },
  {
    "id": "osm-node-13253901355",
    "name": "Brita",
    "address": "",
    "lat": 60.179108,
    "lon": 25.053165,
    "amenity": "cafe",
    "outdoor_seating": null,
    "city": "Helsinki"
  },
  {
    "id": "osm-node-6400793501",
    "name": "Britannia",
    "address": "Vanhaistentie 1",
    "lat": 60.2413657,
    "lon": 24.884914,
    "amenity": "restaurant",
    "outdoor_seating": null,
    "city": "Helsinki"
  },
  {
    "id": "osm-node-11327964961",
    "name": "Britannia",
    "address": "Vantaankoskentie 69",
    "lat": 60.3131868,
    "lon": 24.8455987,
    "amenity": "restaurant",
    "outdoor_seating": null,
    "city": "Vantaa"
  },
  {
    "id": "osm-node-6977655469",
    "name": "Brokadi Tripla",
    "address": "",
    "lat": 60.1989466,
    "lon": 24.9329152,
    "amenity": "restaurant",
    "outdoor_seating": null,
    "city": "Espoo"
  },
  {
    "id": "osm-node-10577675571",
    "name": "Brokadi Tripla",
    "address": "",
    "lat": 60.1988229,
    "lon": 24.9325023,
    "amenity": "restaurant",
    "outdoor_seating": null,
    "city": "Espoo"
  },
  {
    "id": "osm-node-6109695193",
    "name": "Broo",
    "address": "Malminkatu 16",
    "lat": 60.1672047,
    "lon": 24.931692,
    "amenity": "restaurant",
    "outdoor_seating": null,
    "city": "Espoo"
  },
  {
    "id": "osm-node-1056678100",
    "name": "Brooke",
    "address": "Fleminginkatu 13",
    "lat": 60.1860976,
    "lon": 24.9534724,
    "amenity": "pub",
    "outdoor_seating": true,
    "city": "Helsinki"
  },
  {
    "id": "osm-node-6660555490",
    "name": "Bruket Cafe & Catering",
    "address": "Kaikukatu 4",
    "lat": 60.1825345,
    "lon": 24.9595072,
    "amenity": "restaurant",
    "outdoor_seating": null,
    "city": "Helsinki"
  },
  {
    "id": "osm-node-6181265285",
    "name": "Brunni ravintola",
    "address": "Isoseppälä 14",
    "lat": 60.3745956,
    "lon": 24.759411,
    "amenity": "restaurant",
    "outdoor_seating": null,
    "city": "Vantaa"
  },
  {
    "id": "osm-node-2371493857",
    "name": "Bryggeri Helsinki",
    "address": "Sofiankatu 2",
    "lat": 60.1682598,
    "lon": 24.9520069,
    "amenity": "restaurant",
    "outdoor_seating": null,
    "city": "Helsinki"
  },
  {
    "id": "osm-node-175360168",
    "name": "Brändö Seglares restaurang",
    "address": "",
    "lat": 60.179749,
    "lon": 25.009376,
    "amenity": "restaurant",
    "outdoor_seating": null,
    "city": "Helsinki"
  },
  {
    "id": "osm-node-4692013483",
    "name": "Bröd",
    "address": "Bulevardi 26",
    "lat": 60.1639271,
    "lon": 24.9362763,
    "amenity": "restaurant",
    "outdoor_seating": null,
    "city": "Helsinki"
  },
  {
    "id": "osm-node-9839498533",
    "name": "Bröner",
    "address": "Lentoasemantie 1",
    "lat": 60.3177493,
    "lon": 24.9681778,
    "amenity": "restaurant",
    "outdoor_seating": false,
    "city": "Vantaa"
  },
  {
    "id": "osm-node-12760048077",
    "name": "Bubble Tea",
    "address": "",
    "lat": 60.2177012,
    "lon": 24.8118493,
    "amenity": "cafe",
    "outdoor_seating": null,
    "city": "Espoo"
  },
  {
    "id": "osm-node-11729956224",
    "name": "Bubbles",
    "address": "",
    "lat": 60.3193047,
    "lon": 24.9678322,
    "amenity": "restaurant",
    "outdoor_seating": false,
    "city": "Vantaa"
  },
  {
    "id": "osm-node-6875223266",
    "name": "Buenos Aires Cafe/Bar",
    "address": "Eerikinkatu 24",
    "lat": 60.166064,
    "lon": 24.932312,
    "amenity": "cafe",
    "outdoor_seating": null,
    "city": "Helsinki"
  },
  {
    "id": "osm-node-4691849231",
    "name": "Bumi Punavuori",
    "address": "Pursimiehenkatu 21",
    "lat": 60.1593114,
    "lon": 24.9372636,
    "amenity": "restaurant",
    "outdoor_seating": null,
    "city": "Helsinki"
  },
  {
    "id": "osm-node-12189875402",
    "name": "Bunthan's food",
    "address": "Sompasaarenlaituri 22",
    "lat": 60.1792177,
    "lon": 24.9721473,
    "amenity": "restaurant",
    "outdoor_seating": null,
    "city": "Helsinki"
  },
  {
    "id": "osm-node-8856400907",
    "name": "Buongiorno",
    "address": "Museokatu 46",
    "lat": 60.1751384,
    "lon": 24.9192414,
    "amenity": "cafe",
    "outdoor_seating": null,
    "city": "Espoo"
  },
  {
    "id": "osm-node-309677296",
    "name": "Burger Company",
    "address": "Hernesaarenkatu 17",
    "lat": 60.1564436,
    "lon": 24.9304253,
    "amenity": "restaurant",
    "outdoor_seating": null,
    "city": "Helsinki"
  },
  {
    "id": "osm-node-9193043226",
    "name": "Burger Company",
    "address": "Tiklinkuja 1",
    "lat": 60.2334646,
    "lon": 24.8139698,
    "amenity": "restaurant",
    "outdoor_seating": null,
    "city": "Espoo"
  },
  {
    "id": "osm-node-11621762390",
    "name": "Burger Company",
    "address": "",
    "lat": 60.2296493,
    "lon": 24.9705807,
    "amenity": "restaurant",
    "outdoor_seating": null,
    "city": "Helsinki"
  },
  {
    "id": "osm-node-11012063503",
    "name": "Burger Company Kallio",
    "address": "Vaasankatu 25A",
    "lat": 60.1884651,
    "lon": 24.9542661,
    "amenity": "restaurant",
    "outdoor_seating": null,
    "city": "Helsinki"
  },
  {
    "id": "osm-node-11207934557",
    "name": "Burger Company Pasila",
    "address": "Tenderinlenkki 6",
    "lat": 60.1994945,
    "lon": 24.9290165,
    "amenity": "restaurant",
    "outdoor_seating": null,
    "city": "Helsinki"
  },
  {
    "id": "osm-node-526787866",
    "name": "Burgers & Wine",
    "address": "Jaalaranta 5",
    "lat": 60.161331,
    "lon": 24.9143444,
    "amenity": "restaurant",
    "outdoor_seating": true,
    "city": "Helsinki"
  },
  {
    "id": "osm-node-9807326517",
    "name": "Burgers & Wine",
    "address": "Fredikanterassi 1",
    "lat": 60.1978408,
    "lon": 24.9287557,
    "amenity": "restaurant",
    "outdoor_seating": null,
    "city": "Espoo"
  },
  {
    "id": "osm-node-10613707896",
    "name": "Burgerville",
    "address": "",
    "lat": 60.2760676,
    "lon": 24.9701616,
    "amenity": "restaurant",
    "outdoor_seating": null,
    "city": "Helsinki"
  },
  {
    "id": "osm-node-12066773593",
    "name": "Båt Bar & Terrace",
    "address": "Hietalahdenranta 14",
    "lat": 60.1606187,
    "lon": 24.9261909,
    "amenity": "restaurant",
    "outdoor_seating": true,
    "city": "Espoo"
  },
  {
    "id": "osm-node-6938652928",
    "name": "Bär Bar",
    "address": "",
    "lat": 60.1986284,
    "lon": 24.9333005,
    "amenity": "cafe",
    "outdoor_seating": null,
    "city": "Espoo"
  },
  {
    "id": "osm-node-10293610009",
    "name": "Bär Bar Freda",
    "address": "Fredrikinkatu 30",
    "lat": 60.1648548,
    "lon": 24.9360258,
    "amenity": "cafe",
    "outdoor_seating": true,
    "city": "Espoo"
  },
  {
    "id": "osm-node-11971616817",
    "name": "Cafe & Bar Kingi",
    "address": "",
    "lat": 60.1876505,
    "lon": 24.9416719,
    "amenity": "restaurant",
    "outdoor_seating": null,
    "city": "Helsinki"
  },
  {
    "id": "osm-node-12971095086",
    "name": "Café & Bar Odessa",
    "address": "Traverssikuja 3",
    "lat": 60.1941217,
    "lon": 24.9453028,
    "amenity": "bar",
    "outdoor_seating": null,
    "city": "Helsinki"
  },
  {
    "id": "osm-way-177720493",
    "name": "Cafe & Bistro Hiezu",
    "address": "Hiekkarannantie 11",
    "lat": 60.1734495,
    "lon": 24.9056764,
    "amenity": "restaurant",
    "outdoor_seating": true,
    "city": "Helsinki"
  },
  {
    "id": "osm-node-13615218882",
    "name": "Cafe & Deli",
    "address": "",
    "lat": 60.2026977,
    "lon": 24.9352965,
    "amenity": "cafe",
    "outdoor_seating": null,
    "city": "Espoo"
  },
  {
    "id": "osm-node-11370535366",
    "name": "Cafe & Terrace",
    "address": "",
    "lat": 60.1671422,
    "lon": 24.9579963,
    "amenity": "cafe",
    "outdoor_seating": null,
    "city": "Helsinki"
  },
  {
    "id": "osm-node-13615218879",
    "name": "Café 5",
    "address": "",
    "lat": 60.2029077,
    "lon": 24.9335084,
    "amenity": "cafe",
    "outdoor_seating": null,
    "city": "Espoo"
  },
  {
    "id": "osm-node-2133469668",
    "name": "Cafe 7",
    "address": "",
    "lat": 60.1985731,
    "lon": 24.8844072,
    "amenity": "cafe",
    "outdoor_seating": null,
    "city": "Espoo"
  },
  {
    "id": "osm-node-2270234280",
    "name": "Café Aalto",
    "address": "Pohjoisesplanadi 39",
    "lat": 60.1681979,
    "lon": 24.9436721,
    "amenity": "cafe",
    "outdoor_seating": null,
    "city": "Helsinki"
  },
  {
    "id": "osm-node-12985334306",
    "name": "Café Adjutant",
    "address": "Tamminiementie 2",
    "lat": 60.1897101,
    "lon": 24.8827944,
    "amenity": "cafe",
    "outdoor_seating": true,
    "city": "Helsinki"
  },
  {
    "id": "osm-node-2450792321",
    "name": "Cafe Agricola",
    "address": "",
    "lat": 60.1584438,
    "lon": 24.9382781,
    "amenity": "cafe",
    "outdoor_seating": null,
    "city": "Espoo"
  },
  {
    "id": "osm-node-785644238",
    "name": "Cafe Amore",
    "address": "Oulunkyläntie 7",
    "lat": 60.2205315,
    "lon": 24.9630235,
    "amenity": "cafe",
    "outdoor_seating": null,
    "city": "Helsinki"
  },
  {
    "id": "osm-node-11881026458",
    "name": "Cafe Amore",
    "address": "Telakkakatu 2B",
    "lat": 60.1570869,
    "lon": 24.9335223,
    "amenity": "cafe",
    "outdoor_seating": null,
    "city": "Espoo"
  },
  {
    "id": "osm-node-7843699040",
    "name": "Café Anja & Annikki",
    "address": "Sotungintie 4",
    "lat": 60.2811106,
    "lon": 25.1256219,
    "amenity": "cafe",
    "outdoor_seating": null,
    "city": "Vantaa"
  },
  {
    "id": "osm-node-2396263505",
    "name": "Café Artist",
    "address": "Pohjoisesplanadi 2",
    "lat": 60.1674024,
    "lon": 24.9429425,
    "amenity": "cafe",
    "outdoor_seating": null,
    "city": "Helsinki"
  },
  {
    "id": "osm-node-59035034",
    "name": "Café Ateriax",
    "address": "Jauhokuja 3",
    "lat": 60.2243031,
    "lon": 25.0777342,
    "amenity": "cafe",
    "outdoor_seating": null,
    "city": "Helsinki"
  },
  {
    "id": "osm-node-8874688960",
    "name": "Cafe Avec Kallio",
    "address": "Neljäs linja 5",
    "lat": 60.1823256,
    "lon": 24.9528809,
    "amenity": "cafe",
    "outdoor_seating": null,
    "city": "Helsinki"
  },
  {
    "id": "osm-node-1550699413",
    "name": "Cafe Bar Luna",
    "address": "Myyrmäentie 4",
    "lat": 60.2654945,
    "lon": 24.8526657,
    "amenity": "bar",
    "outdoor_seating": null,
    "city": "Vantaa"
  },
  {
    "id": "osm-node-2249127683",
    "name": "Café Bar No 9",
    "address": "Uudenmaankatu 9",
    "lat": 60.1649704,
    "lon": 24.9419012,
    "amenity": "cafe",
    "outdoor_seating": true,
    "city": "Helsinki"
  },
  {
    "id": "osm-node-1377337432",
    "name": "Café Bar Valimo",
    "address": "Vierasvenesatama, Suomenlinna B 13",
    "lat": 60.1460167,
    "lon": 24.9823173,
    "amenity": "bar",
    "outdoor_seating": null,
    "city": "Helsinki"
  },
  {
    "id": "osm-node-9703958821",
    "name": "Café Beat",
    "address": "Vanha maantie 9",
    "lat": 60.2227979,
    "lon": 24.8055491,
    "amenity": "cafe",
    "outdoor_seating": false,
    "city": "Espoo"
  },
  {
    "id": "osm-node-1378007287",
    "name": "Café Berry",
    "address": "Annankatu 27",
    "lat": 60.1676457,
    "lon": 24.936119,
    "amenity": "cafe",
    "outdoor_seating": true,
    "city": "Helsinki"
  },
  {
    "id": "osm-node-13724950612",
    "name": "Cafe Bertha",
    "address": "",
    "lat": 60.1799687,
    "lon": 24.9143263,
    "amenity": "cafe",
    "outdoor_seating": null,
    "city": "Espoo"
  },
  {
    "id": "osm-node-448894677",
    "name": "Cafe Biitsi",
    "address": "Urheilukalastajankuja 1",
    "lat": 60.2026162,
    "lon": 25.1596722,
    "amenity": "cafe",
    "outdoor_seating": true,
    "city": "Helsinki"
  },
  {
    "id": "osm-node-6635256093",
    "name": "Café Boardgame",
    "address": "Eerikinkatu 14",
    "lat": 60.1667119,
    "lon": 24.9348205,
    "amenity": "cafe",
    "outdoor_seating": false,
    "city": "Helsinki"
  },
  {
    "id": "osm-node-2263065420",
    "name": "Cafe Brahe",
    "address": "",
    "lat": 60.1881205,
    "lon": 24.948094,
    "amenity": "cafe",
    "outdoor_seating": null,
    "city": "Helsinki"
  },
  {
    "id": "osm-node-13055787001",
    "name": "Cafe Braku",
    "address": "Helsinginkatu 25",
    "lat": 60.1869197,
    "lon": 24.9506425,
    "amenity": "cafe",
    "outdoor_seating": null,
    "city": "Helsinki"
  },
  {
    "id": "osm-node-13272934135",
    "name": "Café Brutale",
    "address": "Kalkkihiekantie 2",
    "lat": 60.2019712,
    "lon": 25.1433381,
    "amenity": "cafe",
    "outdoor_seating": null,
    "city": "Helsinki"
  },
  {
    "id": "osm-node-146489323",
    "name": "Café Cable",
    "address": "Itämerenkatu 30",
    "lat": 60.162916,
    "lon": 24.9061594,
    "amenity": "cafe",
    "outdoor_seating": null,
    "city": "Helsinki"
  },
  {
    "id": "osm-node-12094051903",
    "name": "Cafe Carccila",
    "address": "",
    "lat": 60.1889957,
    "lon": 24.9391311,
    "amenity": "cafe",
    "outdoor_seating": null,
    "city": "Espoo"
  },
  {
    "id": "osm-node-3870612063",
    "name": "Cafe Cardemumma",
    "address": "Kaarlenkatu 15",
    "lat": 60.1864851,
    "lon": 24.9517697,
    "amenity": "cafe",
    "outdoor_seating": null,
    "city": "Helsinki"
  },
  {
    "id": "osm-node-5022009311",
    "name": "Cafe Carré",
    "address": "",
    "lat": 60.185045,
    "lon": 24.8321794,
    "amenity": "cafe",
    "outdoor_seating": null,
    "city": "Espoo"
  },
  {
    "id": "osm-way-123825329",
    "name": "Café Carusel",
    "address": "Merisatamanranta 10",
    "lat": 60.1537018,
    "lon": 24.9425151,
    "amenity": "cafe",
    "outdoor_seating": true,
    "city": "Helsinki"
  },
  {
    "id": "osm-node-11712182004",
    "name": "Café Clé",
    "address": "Mariankatu 21",
    "lat": 60.1730559,
    "lon": 24.9566335,
    "amenity": "cafe",
    "outdoor_seating": true,
    "city": "Helsinki"
  },
  {
    "id": "osm-way-177693272",
    "name": "Cafe Compass",
    "address": "Ehrenströmintie 1 B",
    "lat": 60.1551655,
    "lon": 24.9516116,
    "amenity": "cafe",
    "outdoor_seating": true,
    "city": "Helsinki"
  },
  {
    "id": "osm-node-4714489589",
    "name": "Café Cook",
    "address": "Kaivokatu 10",
    "lat": 60.1701523,
    "lon": 24.9401954,
    "amenity": "cafe",
    "outdoor_seating": null,
    "city": "Helsinki"
  },
  {
    "id": "osm-node-5950615655",
    "name": "Café Cucca",
    "address": "Kolmas linja 12",
    "lat": 60.18242,
    "lon": 24.948803,
    "amenity": "cafe",
    "outdoor_seating": true,
    "city": "Helsinki"
  },
  {
    "id": "osm-node-4879156046",
    "name": "Cafe Daja",
    "address": "Albertinkatu 5",
    "lat": 60.1601713,
    "lon": 24.9393452,
    "amenity": "cafe",
    "outdoor_seating": null,
    "city": "Helsinki"
  },
  {
    "id": "osm-node-8825682138",
    "name": "Café de la Gare",
    "address": "",
    "lat": 60.2172123,
    "lon": 24.8950774,
    "amenity": "cafe",
    "outdoor_seating": null,
    "city": "Espoo"
  },
  {
    "id": "osm-node-9417739108",
    "name": "Cafe del Mar",
    "address": "Viides linja 16",
    "lat": 60.1838739,
    "lon": 24.951349,
    "amenity": "pub",
    "outdoor_seating": true,
    "city": "Helsinki"
  },
  {
    "id": "osm-node-12094050599",
    "name": "Cafe Donitsi",
    "address": "",
    "lat": 60.1890932,
    "lon": 24.9400867,
    "amenity": "cafe",
    "outdoor_seating": null,
    "city": "Helsinki"
  },
  {
    "id": "osm-node-2169445949",
    "name": "Cafe Einstein",
    "address": "Tiedepuisto 1",
    "lat": 60.2877212,
    "lon": 25.0411028,
    "amenity": "restaurant",
    "outdoor_seating": null,
    "city": "Vantaa"
  },
  {
    "id": "osm-node-151006533",
    "name": "Cafe Ekberg",
    "address": "Bulevardi 9",
    "lat": 60.1647366,
    "lon": 24.9377736,
    "amenity": "cafe",
    "outdoor_seating": true,
    "city": "Helsinki"
  },
  {
    "id": "osm-node-8786201077",
    "name": "Café Elfvik",
    "address": "",
    "lat": 60.201735,
    "lon": 24.8224515,
    "amenity": "cafe",
    "outdoor_seating": null,
    "city": "Espoo"
  },
  {
    "id": "osm-node-10300470509",
    "name": "Cafe Eliel",
    "address": "Kaivokatu 1",
    "lat": 60.1710459,
    "lon": 24.9406111,
    "amenity": "cafe",
    "outdoor_seating": null,
    "city": "Helsinki"
  },
  {
    "id": "osm-node-9229855882",
    "name": "Cafe Elo",
    "address": "Puustellintie 1",
    "lat": 60.2472504,
    "lon": 24.8581922,
    "amenity": "cafe",
    "outdoor_seating": false,
    "city": "Helsinki"
  },
  {
    "id": "osm-node-307465178",
    "name": "Café Engel",
    "address": "Aleksanterinkatu 26",
    "lat": 60.168913,
    "lon": 24.951745,
    "amenity": "cafe",
    "outdoor_seating": null,
    "city": "Helsinki"
  },
  {
    "id": "osm-node-4751244140",
    "name": "Cafe Esplanad",
    "address": "Pohjoisesplanadi 37",
    "lat": 60.1678118,
    "lon": 24.9440107,
    "amenity": "cafe",
    "outdoor_seating": false,
    "city": "Helsinki"
  },
  {
    "id": "osm-node-13845075011",
    "name": "Cafe Harbö",
    "address": "",
    "lat": 60.197823,
    "lon": 25.1283011,
    "amenity": "cafe",
    "outdoor_seating": null,
    "city": "Helsinki"
  },
  {
    "id": "osm-node-3688552937",
    "name": "Cafe Hausen",
    "address": "",
    "lat": 60.1721139,
    "lon": 24.9522529,
    "amenity": "restaurant",
    "outdoor_seating": null,
    "city": "Helsinki"
  },
  {
    "id": "osm-node-12802590624",
    "name": "Café Helli",
    "address": "Katajanokanlaituri 4",
    "lat": 60.1659476,
    "lon": 24.9614288,
    "amenity": "cafe",
    "outdoor_seating": true,
    "city": "Helsinki"
  },
  {
    "id": "osm-node-8059304577",
    "name": "Cafe Hertta",
    "address": "",
    "lat": 60.1945556,
    "lon": 25.0285827,
    "amenity": "cafe",
    "outdoor_seating": false,
    "city": "Helsinki"
  },
  {
    "id": "osm-node-12108539725",
    "name": "Cafe Hiekka",
    "address": "Gunillantie 17",
    "lat": 60.1693323,
    "lon": 25.0333071,
    "amenity": "cafe",
    "outdoor_seating": null,
    "city": "Helsinki"
  },
  {
    "id": "osm-node-4567184260",
    "name": "Cafe Hiekka Kanneltalo",
    "address": "Klaneettitie 5",
    "lat": 60.2388805,
    "lon": 24.8760178,
    "amenity": "cafe",
    "outdoor_seating": null,
    "city": "Helsinki"
  },
  {
    "id": "osm-node-467126271",
    "name": "Cafe Hugo",
    "address": "Klaukkalantie 69",
    "lat": 60.3857271,
    "lon": 24.7445322,
    "amenity": "cafe",
    "outdoor_seating": null,
    "city": "Vantaa"
  },
  {
    "id": "osm-node-11813659679",
    "name": "Café Höijer",
    "address": "",
    "lat": 60.1698462,
    "lon": 24.9440947,
    "amenity": "cafe",
    "outdoor_seating": null,
    "city": "Helsinki"
  },
  {
    "id": "osm-node-2975308444",
    "name": "Cafe II-linja 23",
    "address": "Toinen linja 23",
    "lat": 60.1830793,
    "lon": 24.9450873,
    "amenity": "pub",
    "outdoor_seating": null,
    "city": "Helsinki"
  },
  {
    "id": "osm-way-578231656",
    "name": "Cafe Iisi",
    "address": "",
    "lat": 60.1398672,
    "lon": 25.0043432,
    "amenity": "cafe",
    "outdoor_seating": true,
    "city": "Helsinki"
  },
  {
    "id": "osm-node-8831560580",
    "name": "Cafe Ilo",
    "address": "Vilhonvuorenkatu 7-9",
    "lat": 60.1871428,
    "lon": 24.9652647,
    "amenity": "restaurant",
    "outdoor_seating": null,
    "city": "Helsinki"
  },
  {
    "id": "osm-node-60068035",
    "name": "Cafe Java",
    "address": "",
    "lat": 60.169967,
    "lon": 24.937518,
    "amenity": "cafe",
    "outdoor_seating": true,
    "city": "Helsinki"
  },
  {
    "id": "osm-node-2268402717",
    "name": "Café Johan & Nyström",
    "address": "Kanavaranta 7 C",
    "lat": 60.1690278,
    "lon": 24.9601659,
    "amenity": "cafe",
    "outdoor_seating": true,
    "city": "Helsinki"
  },
  {
    "id": "osm-node-6282875185",
    "name": "Café Kasarmi",
    "address": "Pohjoinen Hesperiankatu 33",
    "lat": 60.1766753,
    "lon": 24.9162657,
    "amenity": "cafe",
    "outdoor_seating": null,
    "city": "Espoo"
  },
  {
    "id": "osm-node-10777471423",
    "name": "Cafe Kim",
    "address": "Miina Sillanpään katu 1",
    "lat": 60.1799112,
    "lon": 24.952767,
    "amenity": "restaurant",
    "outdoor_seating": null,
    "city": "Helsinki"
  },
  {
    "id": "osm-node-7713559041",
    "name": "Cafe Kobben",
    "address": "2",
    "lat": 60.1618908,
    "lon": 24.98231,
    "amenity": "cafe",
    "outdoor_seating": true,
    "city": "Helsinki"
  },
  {
    "id": "osm-node-7052873986",
    "name": "Cafe Koivikko",
    "address": "",
    "lat": 60.3140886,
    "lon": 24.9566969,
    "amenity": "cafe",
    "outdoor_seating": null,
    "city": "Vantaa"
  },
  {
    "id": "osm-node-11775248366",
    "name": "Café Korvari",
    "address": "",
    "lat": 60.1887166,
    "lon": 24.9135643,
    "amenity": "cafe",
    "outdoor_seating": null,
    "city": "Espoo"
  },
  {
    "id": "osm-node-13408892990",
    "name": "Cafe Kuppi",
    "address": "",
    "lat": 60.1639675,
    "lon": 24.9682752,
    "amenity": "cafe",
    "outdoor_seating": false,
    "city": "Helsinki"
  },
  {
    "id": "osm-node-336235835",
    "name": "Cafe Kuusijärvi",
    "address": "Kuusijärventie 3",
    "lat": 60.3137167,
    "lon": 25.113229,
    "amenity": "restaurant",
    "outdoor_seating": null,
    "city": "Vantaa"
  },
  {
    "id": "osm-node-10066780220",
    "name": "Cafe Kylä",
    "address": "Tynnyritie 6",
    "lat": 60.1598982,
    "lon": 24.7356319,
    "amenity": "cafe",
    "outdoor_seating": true,
    "city": "Espoo"
  },
  {
    "id": "osm-node-2291085087",
    "name": "Cafe Köket",
    "address": "Aleksanterinkatu 28",
    "lat": 60.1689056,
    "lon": 24.9513306,
    "amenity": "cafe",
    "outdoor_seating": null,
    "city": "Helsinki"
  },
  {
    "id": "osm-node-1381017801",
    "name": "Café Lasipalatsi",
    "address": "",
    "lat": 60.1704709,
    "lon": 24.9368063,
    "amenity": "cafe",
    "outdoor_seating": null,
    "city": "Helsinki"
  },
  {
    "id": "osm-node-2225393060",
    "name": "Cafe Le Paris",
    "address": "Satamakatu 5",
    "lat": 60.1677726,
    "lon": 24.9626078,
    "amenity": "cafe",
    "outdoor_seating": null,
    "city": "Helsinki"
  },
  {
    "id": "osm-node-7250272756",
    "name": "Café Linkosuo Esplanadi",
    "address": "Eteläesplanadi 8",
    "lat": 60.1670974,
    "lon": 24.9492025,
    "amenity": "cafe",
    "outdoor_seating": false,
    "city": "Helsinki"
  },
  {
    "id": "osm-node-3388093930",
    "name": "Café Lov",
    "address": "Mariankatu 13 B",
    "lat": 60.171151,
    "lon": 24.956829,
    "amenity": "cafe",
    "outdoor_seating": null,
    "city": "Helsinki"
  },
  {
    "id": "osm-node-8895659108",
    "name": "Cafe Margreteberg",
    "address": "Pehtorinkuja 3",
    "lat": 60.2480349,
    "lon": 24.705002,
    "amenity": "cafe",
    "outdoor_seating": null,
    "city": "Espoo"
  },
  {
    "id": "osm-node-6654531585",
    "name": "Café Meli",
    "address": "Helsinginkatu",
    "lat": 60.1874559,
    "lon": 24.956607,
    "amenity": "cafe",
    "outdoor_seating": true,
    "city": "Helsinki"
  },
  {
    "id": "osm-node-1107394026",
    "name": "Café Mellsten",
    "address": "Mellstenintie 6",
    "lat": 60.154156,
    "lon": 24.7734226,
    "amenity": "cafe",
    "outdoor_seating": true,
    "city": "Espoo"
  },
  {
    "id": "osm-node-279625777",
    "name": "Café Merenneito",
    "address": "",
    "lat": 60.1509152,
    "lon": 24.756459,
    "amenity": "cafe",
    "outdoor_seating": null,
    "city": "Espoo"
  },
  {
    "id": "osm-node-5422668024",
    "name": "Café Metro",
    "address": "",
    "lat": 60.1718542,
    "lon": 24.9474229,
    "amenity": "cafe",
    "outdoor_seating": false,
    "city": "Helsinki"
  },
  {
    "id": "osm-node-10224934146",
    "name": "Cafe Metsäpaahtimo",
    "address": "Fahlanderin puistokuja",
    "lat": 60.1687163,
    "lon": 24.9120604,
    "amenity": "cafe",
    "outdoor_seating": null,
    "city": "Espoo"
  },
  {
    "id": "osm-node-13615218880",
    "name": "Café Milano",
    "address": "",
    "lat": 60.2027905,
    "lon": 24.9356961,
    "amenity": "cafe",
    "outdoor_seating": null,
    "city": "Espoo"
  },
  {
    "id": "osm-node-7685489951",
    "name": "Cafe Monami",
    "address": "Karavaanikatu 4",
    "lat": 60.2076025,
    "lon": 25.1181479,
    "amenity": "cafe",
    "outdoor_seating": null,
    "city": "Helsinki"
  },
  {
    "id": "osm-node-2367504827",
    "name": "Cafe Mustasaari",
    "address": "",
    "lat": 60.1725218,
    "lon": 24.8685867,
    "amenity": "restaurant",
    "outdoor_seating": null,
    "city": "Espoo"
  },
  {
    "id": "osm-node-13279158733",
    "name": "Café Noir",
    "address": "Pohjoisesplanadi 35",
    "lat": 60.1678385,
    "lon": 24.9450962,
    "amenity": "cafe",
    "outdoor_seating": null,
    "city": "Helsinki"
  },
  {
    "id": "osm-node-11949883340",
    "name": "Café Normal",
    "address": "Aleksanterinkatu 48",
    "lat": 60.1687384,
    "lon": 24.9443723,
    "amenity": "cafe",
    "outdoor_seating": false,
    "city": "Helsinki"
  },
  {
    "id": "osm-node-1648175151",
    "name": "Café Nuvo",
    "address": "Iskoskuja 3",
    "lat": 60.2601239,
    "lon": 24.8535299,
    "amenity": "cafe",
    "outdoor_seating": null,
    "city": "Espoo"
  },
  {
    "id": "osm-node-12816402110",
    "name": "Cafe Onni",
    "address": "",
    "lat": 60.1885623,
    "lon": 24.9435498,
    "amenity": "cafe",
    "outdoor_seating": true,
    "city": "Helsinki"
  },
  {
    "id": "osm-node-6697287985",
    "name": "Cafe Pacifico",
    "address": "Kalevankatu 17",
    "lat": 60.1666888,
    "lon": 24.9358578,
    "amenity": "cafe",
    "outdoor_seating": null,
    "city": "Helsinki"
  },
  {
    "id": "osm-node-4691849224",
    "name": "Cafe Panik",
    "address": "Pursimiehenkatu 7",
    "lat": 60.1603579,
    "lon": 24.9402785,
    "amenity": "cafe",
    "outdoor_seating": null,
    "city": "Helsinki"
  },
  {
    "id": "osm-node-12918709878",
    "name": "Café Panorama",
    "address": "",
    "lat": 60.2182649,
    "lon": 24.8143078,
    "amenity": "cafe",
    "outdoor_seating": false,
    "city": "Espoo"
  },
  {
    "id": "osm-way-1153857132",
    "name": "Café Petas",
    "address": "Vanha tienhaara 1",
    "lat": 60.2237379,
    "lon": 24.7068736,
    "amenity": "cafe",
    "outdoor_seating": true,
    "city": "Espoo"
  },
  {
    "id": "osm-way-24916976",
    "name": "Cafe Piper",
    "address": "B 56",
    "lat": 60.1421462,
    "lon": 24.9847891,
    "amenity": "cafe",
    "outdoor_seating": true,
    "city": "Helsinki"
  },
  {
    "id": "osm-node-2859663933",
    "name": "Cafe Portaali",
    "address": "",
    "lat": 60.1704958,
    "lon": 24.948198,
    "amenity": "cafe",
    "outdoor_seating": null,
    "city": "Helsinki"
  },
  {
    "id": "osm-node-4551955953",
    "name": "Cafe Pub Oslo",
    "address": "",
    "lat": 60.236357,
    "lon": 25.0831348,
    "amenity": "cafe",
    "outdoor_seating": null,
    "city": "Helsinki"
  },
  {
    "id": "osm-way-93949051",
    "name": "Cafe Regatta",
    "address": "Merikannontie 8",
    "lat": 60.1801666,
    "lon": 24.9117875,
    "amenity": "cafe",
    "outdoor_seating": null,
    "city": "Helsinki"
  },
  {
    "id": "osm-node-4687195613",
    "name": "Cafe Rustica",
    "address": "Korkeavuorenkatu 27",
    "lat": 60.1637907,
    "lon": 24.9463054,
    "amenity": "cafe",
    "outdoor_seating": null,
    "city": "Helsinki"
  },
  {
    "id": "osm-node-7222846002",
    "name": "Café Saurahuone",
    "address": "Pohjolankatu 43",
    "lat": 60.2164835,
    "lon": 24.9540099,
    "amenity": "cafe",
    "outdoor_seating": true,
    "city": "Helsinki"
  },
  {
    "id": "osm-node-4692013481",
    "name": "Café Savoy",
    "address": "Eteläesplanadi 14",
    "lat": 60.1670543,
    "lon": 24.947475,
    "amenity": "cafe",
    "outdoor_seating": true,
    "city": "Helsinki"
  },
  {
    "id": "osm-node-10253894367",
    "name": "Cafe Silkki",
    "address": "Tikkurilantie 44",
    "lat": 60.2891746,
    "lon": 25.0370343,
    "amenity": "cafe",
    "outdoor_seating": null,
    "city": "Vantaa"
  },
  {
    "id": "osm-node-5976365118",
    "name": "Cafe Silo",
    "address": "",
    "lat": 60.1483838,
    "lon": 24.9845785,
    "amenity": "cafe",
    "outdoor_seating": true,
    "city": "Helsinki"
  },
  {
    "id": "osm-node-4391747090",
    "name": "Café Solo",
    "address": "",
    "lat": 60.2025083,
    "lon": 24.9352047,
    "amenity": "cafe",
    "outdoor_seating": null,
    "city": "Espoo"
  },
  {
    "id": "osm-node-606996900",
    "name": "Café Strindberg",
    "address": "Pohjoisesplanadi 33",
    "lat": 60.1678641,
    "lon": 24.9461166,
    "amenity": "cafe",
    "outdoor_seating": true,
    "city": "Helsinki"
  },
  {
    "id": "osm-node-60072511",
    "name": "Café Succès",
    "address": "Korkeavuorenkatu 2",
    "lat": 60.1599267,
    "lon": 24.9464208,
    "amenity": "cafe",
    "outdoor_seating": null,
    "city": "Helsinki"
  },
  {
    "id": "osm-node-13661326915",
    "name": "Cafe Sweet Revenge",
    "address": "",
    "lat": 60.1704953,
    "lon": 24.9406324,
    "amenity": "cafe",
    "outdoor_seating": null,
    "city": "Helsinki"
  },
  {
    "id": "osm-node-11071067192",
    "name": "Cafe Taideterassi",
    "address": "",
    "lat": 60.1816056,
    "lon": 24.9365364,
    "amenity": "cafe",
    "outdoor_seating": true,
    "city": "Espoo"
  },
  {
    "id": "osm-node-1589624914",
    "name": "Café Talo",
    "address": "Hämeentie 2 B",
    "lat": 60.1803394,
    "lon": 24.9506971,
    "amenity": "bar",
    "outdoor_seating": null,
    "city": "Helsinki"
  },
  {
    "id": "osm-node-9554548117",
    "name": "Café Tampopo",
    "address": "Eerikinkatu 15-17",
    "lat": 60.1664431,
    "lon": 24.9328315,
    "amenity": "cafe",
    "outdoor_seating": false,
    "city": "Helsinki"
  },
  {
    "id": "osm-node-2777319135",
    "name": "Cafe Tarina",
    "address": "Länsituuli 12",
    "lat": 60.1759654,
    "lon": 24.8043076,
    "amenity": "cafe",
    "outdoor_seating": true,
    "city": "Espoo"
  },
  {
    "id": "osm-node-4901409024",
    "name": "Cafe Tarina",
    "address": "Laajalahdentie 20",
    "lat": 60.1985805,
    "lon": 24.8758643,
    "amenity": "cafe",
    "outdoor_seating": true,
    "city": "Helsinki"
  },
  {
    "id": "osm-node-13615218883",
    "name": "Café Tauko",
    "address": "",
    "lat": 60.2036691,
    "lon": 24.9388727,
    "amenity": "cafe",
    "outdoor_seating": null,
    "city": "Espoo"
  },
  {
    "id": "osm-node-1387103393",
    "name": "Café Tin Tin Tango",
    "address": "",
    "lat": 60.1786712,
    "lon": 24.9251754,
    "amenity": "cafe",
    "outdoor_seating": null,
    "city": "Helsinki"
  },
  {
    "id": "osm-way-494775391",
    "name": "Cafe Torpanranta",
    "address": "Munkkiniemenranta 2",
    "lat": 60.1944348,
    "lon": 24.8712119,
    "amenity": "restaurant",
    "outdoor_seating": null,
    "city": "Helsinki"
  },
  {
    "id": "osm-way-367503862",
    "name": "Cafe Torpedo",
    "address": "",
    "lat": 60.1826867,
    "lon": 24.9918555,
    "amenity": "cafe",
    "outdoor_seating": null,
    "city": "Helsinki"
  },
  {
    "id": "osm-node-13615218881",
    "name": "Café Trio",
    "address": "",
    "lat": 60.2029905,
    "lon": 24.9334998,
    "amenity": "cafe",
    "outdoor_seating": null,
    "city": "Espoo"
  },
  {
    "id": "osm-node-12834516687",
    "name": "Cafe Unelma",
    "address": "",
    "lat": 60.3511499,
    "lon": 25.0751549,
    "amenity": "cafe",
    "outdoor_seating": null,
    "city": "Vantaa"
  },
  {
    "id": "osm-way-22563575",
    "name": "Cafe Ursula",
    "address": "Ehrenströmintie 3",
    "lat": 60.155184,
    "lon": 24.960788,
    "amenity": "cafe",
    "outdoor_seating": null,
    "city": "Helsinki"
  },
  {
    "id": "osm-node-423109566",
    "name": "Café Vanille",
    "address": "C 18 III",
    "lat": 60.1479554,
    "lon": 24.9851232,
    "amenity": "cafe",
    "outdoor_seating": true,
    "city": "Helsinki"
  },
  {
    "id": "osm-node-12312290236",
    "name": "Cafe Venetsia",
    "address": "Verkkosaarenkatu 12",
    "lat": 60.1899151,
    "lon": 24.9824676,
    "amenity": "cafe",
    "outdoor_seating": null,
    "city": "Helsinki"
  },
  {
    "id": "osm-node-10099017907",
    "name": "Cafe ViChi",
    "address": "Näyttelijäntie 14",
    "lat": 60.2298384,
    "lon": 24.8960603,
    "amenity": "restaurant",
    "outdoor_seating": null,
    "city": "Helsinki"
  },
  {
    "id": "osm-node-59952336",
    "name": "Cafe Viikki",
    "address": "",
    "lat": 60.2106172,
    "lon": 25.0553453,
    "amenity": "restaurant",
    "outdoor_seating": null,
    "city": "Helsinki"
  },
  {
    "id": "osm-node-469179646",
    "name": "Cafe Viiri",
    "address": "",
    "lat": 60.3776125,
    "lon": 24.7588241,
    "amenity": "cafe",
    "outdoor_seating": true,
    "city": "Vantaa"
  },
  {
    "id": "osm-node-4193471146",
    "name": "Café Viisari",
    "address": "",
    "lat": 60.2782904,
    "lon": 24.8214292,
    "amenity": "cafe",
    "outdoor_seating": null,
    "city": "Espoo"
  },
  {
    "id": "osm-node-13070573385",
    "name": "Cafe Vitikka",
    "address": "Vitikka 1",
    "lat": 60.2082535,
    "lon": 24.7627978,
    "amenity": "restaurant",
    "outdoor_seating": null,
    "city": "Espoo"
  },
  {
    "id": "osm-node-11971616823",
    "name": "Cafe Vohvelitehdas",
    "address": "",
    "lat": 60.1886196,
    "lon": 24.9404681,
    "amenity": "cafe",
    "outdoor_seating": null,
    "city": "Helsinki"
  },
  {
    "id": "osm-node-4471196692",
    "name": "Cafe Wanha Satama",
    "address": "Pikku Satamakatu 3-5",
    "lat": 60.1654361,
    "lon": 24.9674431,
    "amenity": "cafe",
    "outdoor_seating": null,
    "city": "Helsinki"
  },
  {
    "id": "osm-node-615217033",
    "name": "Cafe Yrjö",
    "address": "Yrjönkatu 21",
    "lat": 60.1683078,
    "lon": 24.9391341,
    "amenity": "cafe",
    "outdoor_seating": null,
    "city": "Helsinki"
  },
  {
    "id": "osm-node-4589415042",
    "name": "Cafe Zockeria WeeGee",
    "address": "",
    "lat": 60.1788414,
    "lon": 24.7948321,
    "amenity": "cafe",
    "outdoor_seating": null,
    "city": "Espoo"
  },
  {
    "id": "osm-node-8856566815",
    "name": "Cafelito",
    "address": "Hämeentie 26",
    "lat": 60.1829122,
    "lon": 24.9572006,
    "amenity": "cafe",
    "outdoor_seating": true,
    "city": "Helsinki"
  },
  {
    "id": "osm-node-12273008229",
    "name": "Cafeteria Böle",
    "address": "Radiokatu 22",
    "lat": 60.2042661,
    "lon": 24.9170772,
    "amenity": "cafe",
    "outdoor_seating": false,
    "city": "Helsinki"
  },
  {
    "id": "osm-node-11512509140",
    "name": "Caféteria Hyrylä",
    "address": "",
    "lat": 60.3966279,
    "lon": 25.0202102,
    "amenity": "cafe",
    "outdoor_seating": null,
    "city": "Vantaa"
  },
  {
    "id": "osm-node-4691897405",
    "name": "Cafetino",
    "address": "Uudenmaankatu 19-21",
    "lat": 60.1639796,
    "lon": 24.9390992,
    "amenity": "cafe",
    "outdoor_seating": true,
    "city": "Helsinki"
  },
  {
    "id": "osm-node-5871819459",
    "name": "Cafetoria",
    "address": "Otaniementie",
    "lat": 60.1851901,
    "lon": 24.8253912,
    "amenity": "cafe",
    "outdoor_seating": null,
    "city": "Espoo"
  },
  {
    "id": "osm-node-2132786671",
    "name": "Cafetoria roastery",
    "address": "Runeberginkatu 31",
    "lat": 60.1733414,
    "lon": 24.923091,
    "amenity": "cafe",
    "outdoor_seating": true,
    "city": "Helsinki"
  },
  {
    "id": "osm-node-4749101639",
    "name": "Caffe Mansku",
    "address": "Mannerheimintie 8",
    "lat": 60.1673037,
    "lon": 24.9417153,
    "amenity": "cafe",
    "outdoor_seating": null,
    "city": "Helsinki"
  },
  {
    "id": "osm-node-962999980",
    "name": "Cafferino Oba",
    "address": "Kalevankatu 47",
    "lat": 60.1643869,
    "lon": 24.9292429,
    "amenity": "cafe",
    "outdoor_seating": null,
    "city": "Helsinki"
  },
  {
    "id": "osm-way-25891166",
    "name": "Cajsan Helmi",
    "address": "Kaisaniemenranta 6",
    "lat": 60.1768168,
    "lon": 24.9412962,
    "amenity": "cafe",
    "outdoor_seating": null,
    "city": "Helsinki"
  },
  {
    "id": "osm-node-5214728458",
    "name": "Cambo Thai",
    "address": "",
    "lat": 60.2092707,
    "lon": 25.0866016,
    "amenity": "restaurant",
    "outdoor_seating": null,
    "city": "Helsinki"
  },
  {
    "id": "osm-node-13326349901",
    "name": "Campo Cafe",
    "address": "Latukuja 4",
    "lat": 60.2520362,
    "lon": 25.1070879,
    "amenity": "cafe",
    "outdoor_seating": null,
    "city": "Helsinki"
  },
  {
    "id": "osm-node-11369593721",
    "name": "Cantina & Catering Bufedo",
    "address": "Suokalliontie 9",
    "lat": 60.3004978,
    "lon": 24.8932446,
    "amenity": "restaurant",
    "outdoor_seating": null,
    "city": "Vantaa"
  },
  {
    "id": "osm-node-7913069954",
    "name": "Capella Bristo",
    "address": "Piispansilta 10",
    "lat": 60.1625024,
    "lon": 24.7392227,
    "amenity": "restaurant",
    "outdoor_seating": true,
    "city": "Espoo"
  },
  {
    "id": "osm-node-5101780638",
    "name": "Capperi",
    "address": "Siltavoudintie 9",
    "lat": 60.2312547,
    "lon": 24.9680285,
    "amenity": "restaurant",
    "outdoor_seating": true,
    "city": "Helsinki"
  },
  {
    "id": "osm-node-7066086470",
    "name": "Capperi",
    "address": "",
    "lat": 60.1985717,
    "lon": 24.9304446,
    "amenity": "restaurant",
    "outdoor_seating": null,
    "city": "Espoo"
  },
  {
    "id": "osm-node-11209802417",
    "name": "Casa Aldea",
    "address": "",
    "lat": 60.2519689,
    "lon": 25.0068354,
    "amenity": "restaurant",
    "outdoor_seating": null,
    "city": "Helsinki"
  },
  {
    "id": "osm-node-4141041189",
    "name": "Casa Alejandro",
    "address": "Mariankatu 13",
    "lat": 60.1713261,
    "lon": 24.9569115,
    "amenity": "restaurant",
    "outdoor_seating": null,
    "city": "Helsinki"
  },
  {
    "id": "osm-node-8741525698",
    "name": "Casa Haga",
    "address": "Kylätie 25 A",
    "lat": 60.2178085,
    "lon": 24.8933323,
    "amenity": "cafe",
    "outdoor_seating": true,
    "city": "Helsinki"
  },
  {
    "id": "osm-node-1369465568",
    "name": "Casa Largo",
    "address": "Asemanaukio 2",
    "lat": 60.1703163,
    "lon": 24.9390984,
    "amenity": "restaurant",
    "outdoor_seating": null,
    "city": "Helsinki"
  },
  {
    "id": "osm-node-2288185043",
    "name": "Casa Mare",
    "address": "Gyldénintie",
    "lat": 60.16011,
    "lon": 24.8771586,
    "amenity": "restaurant",
    "outdoor_seating": null,
    "city": "Helsinki"
  },
  {
    "id": "osm-node-4693464164",
    "name": "Caverna",
    "address": "Yliopistonkatu 5",
    "lat": 60.1699095,
    "lon": 24.9466636,
    "amenity": "restaurant",
    "outdoor_seating": false,
    "city": "Helsinki"
  },
  {
    "id": "osm-node-1056678094",
    "name": "Cella",
    "address": "Fleminginkatu 15",
    "lat": 60.186508,
    "lon": 24.9534752,
    "amenity": "restaurant",
    "outdoor_seating": true,
    "city": "Helsinki"
  },
  {
    "id": "osm-node-648237235",
    "name": "Chalupa",
    "address": "Lönnrotinkatu 9",
    "lat": 60.1661102,
    "lon": 24.9374005,
    "amenity": "restaurant",
    "outdoor_seating": false,
    "city": "Helsinki"
  },
  {
    "id": "osm-node-2672185975",
    "name": "Chalupa",
    "address": "Mäkelänkatu 28 b",
    "lat": 60.1941228,
    "lon": 24.9567143,
    "amenity": "restaurant",
    "outdoor_seating": null,
    "city": "Helsinki"
  },
  {
    "id": "osm-node-12710224533",
    "name": "Chang Khao",
    "address": "Mäntyviita 6",
    "lat": 60.1792723,
    "lon": 24.8128421,
    "amenity": "restaurant",
    "outdoor_seating": null,
    "city": "Espoo"
  },
  {
    "id": "osm-node-4867707160",
    "name": "Chaos",
    "address": "Iso Roobertinkatu 10",
    "lat": 60.163672,
    "lon": 24.9430345,
    "amenity": "restaurant",
    "outdoor_seating": null,
    "city": "Helsinki"
  },
  {
    "id": "osm-node-3475672764",
    "name": "Checkpoint Café",
    "address": "Mäkelänkatu 87",
    "lat": 60.2092598,
    "lon": 24.9458547,
    "amenity": "cafe",
    "outdoor_seating": null,
    "city": "Helsinki"
  },